{
  "version": 0.6,
  "generator": "Overpass API 0.7.62.11 87bfad18",
  "osm3s": {
    "timestamp_osm_base": "2026-04-01T09:36:36Z",
    "copyright": "The data included in this document is from www.openstreetmap.org. The data is made available under ODbL."
  },
  "elements": [

{
  "type": "node",
  "id": 1456303681,
  "lat": 3.1533436,
  "lon": 101.7130586,
  "tags": {
    "check_date": "2024-05-19",
    "level": "-1",
    "name": "Aquaria KLCC",
    "name:en": "Aquaria KLCC",
    "name:ms": "Aquaria KLCC",
    "name:zh": "吉隆坡城中城水族馆",
    "name:zh-Hans": "吉隆坡城中城水族馆",
    "name:zh-Hant": "吉隆坡城中城水族館",
    "payment:cash": "yes",
    "payment:credit_cards": "yes",
    "payment:debit_cards": "yes",
    "smoking": "no",
    "tourism": "aquarium; attraction",
    "website": "https://aquariaklcc.com/",
    "wheelchair": "yes",
    "wikidata": "Q29168",
    "wikimedia_commons": "Category:Aquaria KLCC",
    "wikipedia": "en:Aquaria KLCC"
  }
},
{
  "type": "node",
  "id": 1524273574,
  "lat": 3.1053254,
  "lon": 101.6503601,
  "tags": {
    "name": "Muzium Petaling Jaya",
    "name:en": "Petaling Jaya Museum",
    "name:ms": "Muzium Petaling Jaya",
    "name:zh": "八打灵再也博物馆",
    "tourism": "museum",
    "wikidata": "Q27473082",
    "wikimedia_commons": "Category:Petaling Jaya Museum",
    "wikipedia": "en:Petaling Jaya Museum"
  }
},
{
  "type": "node",
  "id": 1524820466,
  "lat": 3.0914515,
  "lon": 101.6580206,
  "tags": {
    "name": "Bukit Gasing - Puchong view",
    "tourism": "viewpoint"
  }
},
{
  "type": "node",
  "id": 1576435436,
  "lat": 3.0954529,
  "lon": 101.6597632,
  "tags": {
    "tourism": "viewpoint"
  }
},
{
  "type": "node",
  "id": 1696988220,
  "lat": 3.2359862,
  "lon": 101.6285376,
  "tags": {
    "name": "Traditional House",
    "name:en": "Traditional House",
    "tourism": "museum"
  }
},
{
  "type": "node",
  "id": 1738872865,
  "lat": 3.2586707,
  "lon": 101.6463232,
  "tags": {
    "addr:city": "Batu Caves",
    "addr:postcode": "68100",
    "name": "Kolam Air Panas Selayang",
    "name:en": "Selayang Hot Spring",
    "name:ms": "Kolam Air Panas Selayang",
    "note": "Hot Springs",
    "operator": "Majlis Perbandaran Selayang (MPS)",
    "tourism": "attraction",
    "website": "https://www.klook.com/en-MY/blog/hot-springs-in-malaysia/"
  }
},
{
  "type": "node",
  "id": 1919710738,
  "lat": 3.1514614,
  "lon": 101.7027596,
  "tags": {
    "facebook": "https://www.facebook.com/klupsidedown/",
    "name": "Upside Down House",
    "opening_hours": "09:00-19:00",
    "phone": "+60 10 802 7547",
    "tourism": "attraction",
    "website": "https://www.menarakl.com.my/index.php/attractions/tower-attractions/upside-down-house"
  }
},
{
  "type": "node",
  "id": 1919715404,
  "lat": 3.1500612,
  "lon": 101.7024185,
  "tags": {
    "museum": "nature",
    "name": "Galeri Interaktif NRE",
    "name:en": "Forestry Information Centre",
    "opening_hours": "Mo-Su 09:00-17:00",
    "tourism": "museum"
  }
},
{
  "type": "node",
  "id": 2517533554,
  "lat": 3.1561762,
  "lon": 101.7137639,
  "tags": {
    "direction": "310",
    "name": "Petronas Towers Viewpoint #2",
    "name:en": "Petronas Towers Viewpoint #2",
    "name:ru": "Башни Петронас",
    "tourism": "viewpoint"
  }
},
{
  "type": "node",
  "id": 3338501983,
  "lat": 3.1477351,
  "lon": 101.6934234,
  "tags": {
    "country": "MY",
    "description": "Second tallest flagpole in Malaysia after Sarawak Flagpole. Made in North Korea.",
    "flag:name": "Malaysia",
    "flag:type": "national",
    "flag:wikidata": "Q168935",
    "flagpole": "freestanding",
    "height": "95",
    "image": "https://photos.app.goo.gl/EsSFCwjCJfso9V6o8",
    "lit": "yes",
    "man_made": "flagpole",
    "subject": "Malaysia",
    "subject:wikidata": "Q833",
    "tourism": "attraction",
    "wikimedia_commons": "Category:Flagpole of Dataran Merdeka"
  }
},
{
  "type": "node",
  "id": 3865639558,
  "lat": 3.0923440,
  "lon": 101.7704740,
  "tags": {
    "name": "Midway Station",
    "tourism": "viewpoint"
  }
},
{
  "type": "node",
  "id": 3865639637,
  "lat": 3.0922580,
  "lon": 101.7712580,
  "tags": {
    "name": "Station",
    "tourism": "viewpoint"
  }
},
{
  "type": "node",
  "id": 3978494998,
  "lat": 3.1595375,
  "lon": 101.6394674,
  "tags": {
    "tourism": "viewpoint"
  }
},
{
  "type": "node",
  "id": 4080167640,
  "lat": 3.0917034,
  "lon": 101.6596913,
  "tags": {
    "name": "Bukit Gasing - KL view",
    "tourism": "viewpoint"
  }
},
{
  "type": "node",
  "id": 4283481889,
  "lat": 3.1472239,
  "lon": 101.6934070,
  "tags": {
    "contact:instagram": "https://www.instagram.com/klcitygallery/",
    "description": "Interesting model of city on the first floor",
    "fee": "no",
    "internet_access": "wlan",
    "internet_access:fee": "no",
    "name": "Kuala Lumpur City Gallery",
    "name:en": "Kuala Lumpur City Gallery",
    "name:hi": "कुआलालम्पुर गैलरी",
    "name:ms": "Galeri Kuala Lumpur",
    "name:pl": "Galeria Miejska",
    "name:zh": "吉隆坡城市馆",
    "name:zh-Hans": "吉隆坡城市馆",
    "name:zh-Hant": "吉隆坡城市館",
    "opening_hours": "09:00-18:30; Tu off",
    "tourism": "museum",
    "website": "http://www.klcitygallery.com.my/",
    "wikidata": "Q66041057",
    "wikimedia_commons": "Category:Kuala Lumpur City Gallery",
    "wikipedia": "en:Kuala Lumpur City Gallery"
  }
},
{
  "type": "node",
  "id": 4327707896,
  "lat": 3.1290537,
  "lon": 101.6840403,
  "tags": {
    "addr:city": "Kuala Lumpur",
    "addr:postcode": "50470",
    "addr:street": "Jalan Tun Sambanthan",
    "name": "Little India",
    "name:zh": "十五碑小印度",
    "tourism": "attraction"
  }
},
{
  "type": "node",
  "id": 4329258589,
  "lat": 3.1409386,
  "lon": 101.6889136,
  "tags": {
    "addr:city": "Kuala Lumpur",
    "addr:housenumber": "5",
    "addr:postcode": "50480",
    "addr:street": "Jalan Perdana",
    "facebook": "https://www.facebook.com/RoyalMalaysiaPoliceMuseum/",
    "fee": "no",
    "instagram": "https://instagram.com/royalmalaysiapolicemuseum",
    "name": "Muzium Polis Diraja Malaysia",
    "name:en": "Royal Malaysia Police Museum",
    "name:ja": "警察博物館",
    "name:zh": "马来西亚皇家警察博物馆",
    "opening_hours": "Tu-Su 10:00-18:00; Fr 12:30-14:30 off \"Friday's prayer\"",
    "tourism": "museum",
    "wikidata": "Q3015254",
    "wikimedia_commons": "Category:Royal Malaysia Police Museum",
    "wikipedia": "en:Royal Malaysian Police Museum"
  }
},
{
  "type": "node",
  "id": 4330630490,
  "lat": 3.1258839,
  "lon": 101.7869384,
  "tags": {
    "tourism": "viewpoint"
  }
},
{
  "type": "node",
  "id": 4354929690,
  "lat": 3.0920233,
  "lon": 101.6022083,
  "tags": {
    "name": "Rumah Sewa Elliani",
    "tourism": "attraction"
  }
},
{
  "type": "node",
  "id": 4400794173,
  "lat": 3.1526407,
  "lon": 101.7035046,
  "tags": {
    "name": "KL Tower Mini Zoo",
    "name:en": "KL Tower Mini Zoo",
    "tourism": "zoo"
  }
},
{
  "type": "node",
  "id": 4525948489,
  "lat": 3.1468405,
  "lon": 101.6869418,
  "tags": {
    "description": "Very small collection (84) of herbs and plants",
    "name": "Herbarium",
    "opening_hours": "Mo-Fr 08:30-17:00",
    "tourism": "museum"
  }
},
{
  "type": "node",
  "id": 4661264031,
  "lat": 3.1457108,
  "lon": 101.7190427,
  "tags": {
    "name": "Jadi Batik Gallery",
    "name:en": "Jadi Batik Gallery",
    "opening_hours": "09:00-17:30",
    "tourism": "gallery",
    "website": "http://www.jadibatek.com/"
  }
},
{
  "type": "node",
  "id": 4703275089,
  "lat": 3.1591109,
  "lon": 101.7188203,
  "tags": {
    "email": "info@ilhamgallery.com",
    "facebook": "https://www.facebook.com/ilhamgallerykl",
    "fee": "no",
    "level": "3",
    "name": "ILHAM Gallery",
    "name:en": "ILHAM Gallery",
    "opening_hours": "Tu-Sa 11:00-19:00; Su 11:00-17:00; Mo,PH off",
    "tourism": "gallery",
    "website": "http://www.ilhamgallery.com/"
  }
},
{
  "type": "node",
  "id": 4755933321,
  "lat": 3.2369149,
  "lon": 101.7385311,
  "tags": {
    "tourism": "viewpoint"
  }
},
{
  "type": "node",
  "id": 4770727112,
  "lat": 3.1358904,
  "lon": 101.6914330,
  "tags": {
    "addr:city": "Kuala Lumpur",
    "addr:housenumber": "8",
    "addr:postcode": "50470",
    "addr:street": "Jalan Scott",
    "name": "Wei-Ling Gallery",
    "tourism": "gallery",
    "website": "https://weiling-gallery.com/",
    "wikidata": "Q18394769",
    "wikipedia": "en:Wei-Ling Gallery"
  }
},
{
  "type": "node",
  "id": 4770741269,
  "lat": 3.1579451,
  "lon": 101.7120305,
  "tags": {
    "name": "Galeri Petronas",
    "name:en": "Petronas Gallery",
    "name:ms": "Galeri Petronas",
    "tourism": "gallery",
    "website": "http://www.galeripetronas.com.my/Pages/Current.aspx",
    "wikidata": "Q5337739",
    "wikipedia": "en:Petronas Gallery"
  }
},
{
  "type": "node",
  "id": 4816630727,
  "lat": 3.0711687,
  "lon": 101.7308715,
  "tags": {
    "name": "Bukit Besi Alam Damai Cheras",
    "name:ms": "Bukit Besi Alam Damai Cheras",
    "tourism": "viewpoint"
  }
},
{
  "type": "node",
  "id": 4817168621,
  "lat": 3.1720659,
  "lon": 101.7326832,
  "tags": {
    "addr:street": "Jalan Pawang",
    "internet_access": "wlan",
    "name": "Taksu Gallery",
    "opening_hours": "10:00-17:00",
    "tourism": "museum",
    "website": "https://www.taksu.com/"
  }
},
{
  "type": "node",
  "id": 4823046824,
  "lat": 3.1557430,
  "lon": 101.5689560,
  "tags": {
    "addr:street": "Jalan Teknologi",
    "name": "Malaysia Chocolate Museum",
    "name:en": "Malaysia Chocolate Museum",
    "name:zh": "马来西亚巧克力博物馆",
    "tourism": "museum"
  }
},
{
  "type": "node",
  "id": 5213595830,
  "lat": 3.0234325,
  "lon": 101.6302722,
  "tags": {
    "tourism": "viewpoint"
  }
},
{
  "type": "node",
  "id": 5213595831,
  "lat": 3.0235373,
  "lon": 101.6306875,
  "tags": {
    "tourism": "viewpoint"
  }
},
{
  "type": "node",
  "id": 5316288322,
  "lat": 3.1472253,
  "lon": 101.6951920,
  "tags": {
    "alt_name": "Blue Pool",
    "alt_name:ms": "Kolam Biru",
    "description": "Evening light show at 21:00",
    "direction": "15",
    "name": "River of Life",
    "name:en": "River of Life",
    "name:ms": "Sungai Nadi Kehidupan",
    "name:zh": "生命之河",
    "note": "Technically, River of Life is a river beautification project covering 100+ km of river, but this is the star attraction most people are looking for, and more well-known than the technically correct Blue Pool name.",
    "operator": "Dewan Bandaraya Kuala Lumpur",
    "tourism": "viewpoint"
  }
},
{
  "type": "node",
  "id": 5436453923,
  "lat": 3.0910323,
  "lon": 101.7942290,
  "tags": {
    "addr:street": "J Hulu Langat",
    "name": "Hot Spring Sg Serai Langat",
    "tourism": "attraction"
  }
},
{
  "type": "node",
  "id": 5568194821,
  "lat": 3.0451500,
  "lon": 101.6048428,
  "tags": {
    "addr:street": "Jalan Industri 1/2",
    "name": "Bolder Ventures",
    "name:en": "Bolder Ventures Climbing Gym",
    "tourism": "attraction"
  }
},
{
  "type": "node",
  "id": 5678926520,
  "lat": 3.2364660,
  "lon": 101.6644455,
  "tags": {
    "name": "99 Wonderland Park LED Park",
    "tourism": "theme_park"
  }
},
{
  "type": "node",
  "id": 5729567223,
  "lat": 3.1397613,
  "lon": 101.6933554,
  "tags": {
    "addr:street": "Jalan Sultan Hishamuddin",
    "name": "Old KL Train Station",
    "name:en": "Old KL Train Station",
    "name:zh": "吉隆坡老火车站",
    "name:zh-Hans": "吉隆坡老火车站",
    "name:zh-Hant": "吉隆坡老火車站",
    "tourism": "attraction"
  }
},
{
  "type": "node",
  "id": 5839389988,
  "lat": 3.1528590,
  "lon": 101.7037604,
  "tags": {
    "addr:city": "Kuala Lumpur",
    "addr:housenumber": "2",
    "addr:postcode": "50250",
    "addr:street": "Jalan Puncak",
    "height": "421",
    "man_made": "tower",
    "name": "Menara Kuala Lumpur",
    "name:en": "Kuala Lumpur Tower",
    "name:hi": "कुआलालम्पुर की मीनार",
    "name:ms": "Menara Kuala Lumpur",
    "name:zh": "吉隆坡塔",
    "opening_hours": "Mo-Su 09:00-22:00",
    "phone": "+60 32020 5444",
    "short_name": "KL Tower",
    "tourism": "attraction",
    "tower:type": "observation",
    "website": "https://www.menarakl.com.my/",
    "wikidata": "Q745016",
    "wikimedia_commons": "Category:Kuala Lumpur Tower",
    "wikipedia": "en:Kuala Lumpur Tower"
  }
},
{
  "type": "node",
  "id": 5892806555,
  "lat": 3.0885245,
  "lon": 101.7712794,
  "tags": {
    "name": "Station 1",
    "tourism": "viewpoint"
  }
},
{
  "type": "node",
  "id": 5894362782,
  "lat": 3.0949085,
  "lon": 101.7708323,
  "tags": {
    "name": "Gold Station",
    "tourism": "viewpoint"
  }
},
{
  "type": "node",
  "id": 5900763516,
  "lat": 3.0902202,
  "lon": 101.7716613,
  "tags": {
    "name": "Station 2",
    "tourism": "viewpoint"
  }
},
{
  "type": "node",
  "id": 6239045146,
  "lat": 3.0963710,
  "lon": 101.7726961,
  "tags": {
    "name": "Station 3b",
    "tourism": "viewpoint"
  }
},
{
  "type": "node",
  "id": 6246346788,
  "lat": 3.1589465,
  "lon": 101.7108880,
  "tags": {
    "direction": "140",
    "name": "Petronas Towers Viewpoint #1",
    "tourism": "viewpoint"
  }
},
{
  "type": "node",
  "id": 6259611407,
  "lat": 3.1400969,
  "lon": 101.7054360,
  "tags": {
    "direction": "355",
    "name": "Viewpoint of KL TV Tower between 2 buildings",
    "tourism": "viewpoint"
  }
},
{
  "type": "node",
  "id": 6290451340,
  "lat": 3.0910677,
  "lon": 101.6611773,
  "tags": {
    "tourism": "viewpoint"
  }
},
{
  "type": "node",
  "id": 6367206585,
  "lat": 3.1468066,
  "lon": 101.6866800,
  "tags": {
    "name": "Malaysia Cartoon & Comic house",
    "tourism": "museum"
  }
},
{
  "type": "node",
  "id": 6860580219,
  "lat": 3.2381345,
  "lon": 101.6843388,
  "tags": {
    "natural": "cave_entrance",
    "tourism": "viewpoint"
  }
},
{
  "type": "node",
  "id": 7192886087,
  "lat": 3.1404039,
  "lon": 101.6877368,
  "tags": {
    "name": "Mini Stonehenge",
    "name:en": "Mini Stone Henge",
    "tourism": "attraction"
  }
},
{
  "type": "node",
  "id": 7217517474,
  "lat": 3.1377468,
  "lon": 101.6885316,
  "tags": {
    "email": "pr.mskoa@jmm.gov.my",
    "fee": "RM5",
    "name": "Muzium Seni Kraf Orang Asli",
    "name:en": "Orang Asli Craft Museum",
    "name:ms": "Muzium Seni Kraf Orang Asli",
    "opening_hours": "Mo-Su 09:00-18:00",
    "tourism": "museum",
    "website": "http://www.jmm.gov.my/en/museum/orang-asli-crafts-museum"
  }
},
{
  "type": "node",
  "id": 7221496859,
  "lat": 3.1394860,
  "lon": 101.6893032,
  "tags": {
    "addr:city": "Kuala Lumpur",
    "addr:housenumber": "53",
    "addr:postcode": "50480",
    "addr:street": "Jalan Perdana",
    "amenity": "planetarium",
    "description": "The National Planetarium is the national planetarium of Malaysia. Entrance fee: RM12 (RM 6 for children)",
    "email": "webmaster@angkasa.gov.my",
    "facebook": "https://www.facebook.com/planetariumnegara/",
    "fee": "yes",
    "name": "Planetarium Negara",
    "name:en": "National Planetarium",
    "name:ms": "Planetarium Negara",
    "name:zh": "国家天文馆",
    "name:zh-Hans": "国家天文馆",
    "name:zh-Hant": "國家天文館",
    "opening_hours": "09:00-16:30; Mo off",
    "phone": "+603 2273 4301",
    "tourism": "museum",
    "website": "https://www.planetariumnegara.gov.my/",
    "wikidata": "Q924297",
    "wikimedia_commons": "Category:Planetarium Negara",
    "wikipedia": "en:National Planetarium"
  }
},
{
  "type": "node",
  "id": 7223861810,
  "lat": 3.1614383,
  "lon": 101.7077741,
  "tags": {
    "tourism": "viewpoint"
  }
},
{
  "type": "node",
  "id": 7592108385,
  "lat": 3.2331569,
  "lon": 101.7542990,
  "tags": {
    "name": "Klang Gates Quartz Ridge",
    "name:en": "Klang Gates Quartz Ridge",
    "tourism": "attraction"
  }
},
{
  "type": "node",
  "id": 7741143506,
  "lat": 3.0678800,
  "lon": 101.6066929,
  "tags": {
    "name": "Nickelodeon Lost Lagoon",
    "tourism": "attraction"
  }
},
{
  "type": "node",
  "id": 7741143507,
  "lat": 3.0693128,
  "lon": 101.6056527,
  "tags": {
    "name": "Wildlife Park",
    "name:en": "Wildlife Park",
    "tourism": "attraction"
  }
},
{
  "type": "node",
  "id": 7741143508,
  "lat": 3.0708102,
  "lon": 101.6069327,
  "tags": {
    "name": "Water Park",
    "name:en": "Water Park",
    "tourism": "attraction"
  }
},
{
  "type": "node",
  "id": 7741143509,
  "lat": 3.0719150,
  "lon": 101.6045091,
  "tags": {
    "name": "Amusement Park",
    "name:en": "Amusement Park",
    "tourism": "attraction"
  }
},
{
  "type": "node",
  "id": 7741143510,
  "lat": 3.0709347,
  "lon": 101.6055659,
  "tags": {
    "name": "Scream Park",
    "name:en": "Scream Park",
    "tourism": "attraction"
  }
},
{
  "type": "node",
  "id": 7741143511,
  "lat": 3.0684828,
  "lon": 101.6083920,
  "tags": {
    "name": "X Park",
    "tourism": "attraction"
  }
},
{
  "type": "node",
  "id": 7875873078,
  "lat": 3.1798116,
  "lon": 101.7666329,
  "tags": {
    "tourism": "viewpoint"
  }
},
{
  "type": "node",
  "id": 7916749285,
  "lat": 3.0991489,
  "lon": 101.7517134,
  "tags": {
    "name": "Ketumbar Hill KL viewpoint",
    "tourism": "viewpoint"
  }
},
{
  "type": "node",
  "id": 7924539685,
  "lat": 3.1004266,
  "lon": 101.7563716,
  "tags": {
    "leisure": "wildlife_hide",
    "name": "Wild boar sightseeing",
    "tourism": "attraction"
  }
},
{
  "type": "node",
  "id": 7996342620,
  "lat": 3.1421651,
  "lon": 101.7105637,
  "tags": {
    "name": "Berjaya Times Square Theme Park",
    "tourism": "theme_park",
    "wikidata": "Q2998295",
    "wikimedia_commons": "Category:Berjaya Times Square Theme Park",
    "wikipedia": "en:Berjaya Times Square Theme Park"
  }
},
{
  "type": "node",
  "id": 8277169289,
  "lat": 3.1868738,
  "lon": 101.7696000,
  "tags": {
    "date": "2008-12-06",
    "hazard_type": "landslide",
    "name": "Landslide Incident Bukit Antarabangsa",
    "tourism": "attraction"
  }
},
{
  "type": "node",
  "id": 9120196841,
  "lat": 3.1591564,
  "lon": 101.6337845,
  "tags": {
    "name": "Mutiara Damansara view from hill",
    "tourism": "viewpoint"
  }
},
{
  "type": "node",
  "id": 9120196843,
  "lat": 3.1656923,
  "lon": 101.6395714,
  "tags": {
    "direction": "90",
    "name": "Kuala Lumpur viewpoint",
    "tourism": "viewpoint"
  }
},
{
  "type": "node",
  "id": 9120196844,
  "lat": 3.1610739,
  "lon": 101.6348467,
  "tags": {
    "direction": "180",
    "name": "Stream view",
    "tourism": "viewpoint"
  }
},
{
  "type": "node",
  "id": 9120196847,
  "lat": 3.1615239,
  "lon": 101.6354981,
  "tags": {
    "name": "Starbuczs Swing",
    "tourism": "viewpoint"
  }
},
{
  "type": "node",
  "id": 9196355756,
  "lat": 3.1222885,
  "lon": 101.6524093,
  "tags": {
    "fee": "no",
    "museum": "science",
    "name": "Muzium Geologi",
    "name:en": "Geology Museum",
    "name:ms": "Muzium Geologi",
    "operator": "Universiti Malaya",
    "operator:short": "UM",
    "operator:type": "university",
    "operator:wikidata": "Q1142924",
    "tourism": "museum",
    "wheelchair": "yes"
  }
},
{
  "type": "node",
  "id": 9223958892,
  "lat": 3.0691112,
  "lon": 101.6067643,
  "tags": {
    "name": "Gunung Berapi",
    "name:ms": "Gunung Berapi",
    "tourism": "attraction"
  }
},
{
  "type": "node",
  "id": 9572727988,
  "lat": 3.1370454,
  "lon": 101.7012022,
  "tags": {
    "addr:city": "Kuala Lumpur",
    "addr:housenumber": "89 & 91",
    "addr:postcode": "50150",
    "addr:street": "Jalan Maharajalela",
    "air_conditioning": "yes",
    "contact:facebook": "https://www.facebook.com/llgmemorial/",
    "description": "林连玉老师逝世后，当时就有建设林连玉纪念馆的倡议。只不过由于种种原因，历经20余年波折，直到2007年，林连玉基金修改章程并扩大队伍后，才有条件开展林连玉纪念馆的筹款及建设工作。\n\n从2007年至2010年，透过全国各地多项筹款活动，林连玉基金得到华社群众大力支持，筹获马币448万元，并在2011年购得坐落于吉隆坡马哈拉惹里拉路（Jalan Maharajalela）的一座五层半大厦，耗资465万。此地位处吉隆坡传统华人文化中心纽带，交通方便，是建馆的理想地点。",
    "email": "memorial@llgcultural.com",
    "name": "Memorial Lim Lian Geok",
    "name:en": "Memorial Lim Lian Geok",
    "name:zh": "林连玉纪念馆",
    "name:zh-Hans": "林连玉纪念馆",
    "name:zh-Hant": "林連玉紀念館",
    "tourism": "museum",
    "website": "https://llgcultural.com/memorialllg/"
  }
},
{
  "type": "node",
  "id": 9839016996,
  "lat": 3.1433007,
  "lon": 101.7000100,
  "tags": {
    "addr:city": "Kuala Lumpur",
    "addr:housenumber": "2",
    "addr:postcode": "50150",
    "addr:street": "Jalan Hang Jebat",
    "museum": "history",
    "name": "Historical Museum of Traditional Chinese Medicine in Malaysia",
    "name:en": "Historical Museum of Traditional Chinese Medicine in Malaysia",
    "name:zh": "马来西亚中医药历史文化馆",
    "name:zh-Hans": "马来西亚中医药历史文化馆",
    "name:zh-Hant": "馬來西亞中醫藥歷史文化館",
    "tourism": "museum"
  }
},
{
  "type": "node",
  "id": 9903396583,
  "lat": 3.1555410,
  "lon": 101.6963397,
  "tags": {
    "name": "Galeri Budi",
    "tourism": "gallery"
  }
},
{
  "type": "node",
  "id": 10035485588,
  "lat": 3.1575283,
  "lon": 101.7118699,
  "tags": {
    "addr:city": "Kuala Lumpur",
    "addr:country": "MY",
    "addr:floor": "4",
    "addr:housename": "Suria KLCC",
    "addr:postcode": "50088",
    "addr:street": "Jalan Ampang",
    "alt_name": "Petrosains, The Discovery Centre",
    "check_date": "2024-05-26",
    "contact:email": "infopetrosains@petronas.com",
    "contact:facebook": "petrosains",
    "contact:phone": "+60 32 331 8787",
    "contact:website": "https://petrosains.com.my/",
    "description": "Petrosains - Petroscience - is a scientific children museum with lots of interactive activities for the young ones. Some attractions req. minimum height 1.40 meters and weight max 80kg",
    "fee": "yes",
    "level": "4",
    "museum": "children",
    "name": "Petrosains",
    "name:en": "Petrosains",
    "name:ms": "Petrosains",
    "operator": "Petroliam Nasional Berhad",
    "operator:type": "private",
    "payment:cash": "yes",
    "payment:contactless": "yes",
    "payment:mastercard": "yes",
    "payment:visa": "yes",
    "subject": "science",
    "toilets": "yes",
    "tourism": "museum",
    "wheelchair": "yes"
  }
},
{
  "type": "node",
  "id": 10196320341,
  "lat": 3.2393309,
  "lon": 101.7651917,
  "tags": {
    "tourism": "viewpoint"
  }
},
{
  "type": "node",
  "id": 10222768945,
  "lat": 3.2276390,
  "lon": 101.7692113,
  "tags": {
    "ele": "303",
    "name": "Bukit Tabur Extra",
    "name:en": "Tabur Extra Hill",
    "name:ms": "Bukit Tabur Extra",
    "natural": "peak",
    "official_name": "Bukit Batu Gajah",
    "tourism": "viewpoint"
  }
},
{
  "type": "node",
  "id": 10223170406,
  "lat": 3.0192425,
  "lon": 101.6893230,
  "tags": {
    "alt_name": "Sunrise Peak",
    "name": "Bukit Serdang",
    "natural": "peak",
    "tourism": "viewpoint"
  }
},
{
  "type": "node",
  "id": 10223170407,
  "lat": 3.0181456,
  "lon": 101.6891795,
  "tags": {
    "name": "Sunrise Peak 2",
    "tourism": "viewpoint"
  }
},
{
  "type": "node",
  "id": 10223170408,
  "lat": 3.0172617,
  "lon": 101.6894343,
  "tags": {
    "name": "Sunrise Peak 1",
    "tourism": "viewpoint"
  }
},
{
  "type": "node",
  "id": 10223170409,
  "lat": 3.0128703,
  "lon": 101.6846935,
  "tags": {
    "name": "Highway Lookout Point",
    "tourism": "viewpoint"
  }
},
{
  "type": "node",
  "id": 10223398264,
  "lat": 3.0749120,
  "lon": 101.7333528,
  "tags": {
    "tourism": "viewpoint"
  }
},
{
  "type": "node",
  "id": 10223398265,
  "lat": 3.0731614,
  "lon": 101.7333268,
  "tags": {
    "tourism": "viewpoint"
  }
},
{
  "type": "node",
  "id": 10237943387,
  "lat": 3.2379170,
  "lon": 101.6169316,
  "tags": {
    "tourism": "viewpoint"
  }
},
{
  "type": "node",
  "id": 10267973383,
  "lat": 3.0918619,
  "lon": 101.7759258,
  "tags": {
    "amenity": "shelter",
    "description": "Hiking rest area with picnic tables, benches, kitchen, jungle swimming pool and decorations.",
    "name": "Shan Shui (Hill Water) Station",
    "name:zh": "山水站",
    "tourism": "attraction"
  }
},
{
  "type": "node",
  "id": 10287243361,
  "lat": 3.1031983,
  "lon": 101.7550137,
  "tags": {
    "amenity": "shelter",
    "tourism": "viewpoint"
  }
},
{
  "type": "node",
  "id": 10287243362,
  "lat": 3.1013840,
  "lon": 101.7564565,
  "tags": {
    "tourism": "viewpoint"
  }
},
{
  "type": "node",
  "id": 10287243385,
  "lat": 3.0999365,
  "lon": 101.7563773,
  "tags": {
    "name": "SUKE view",
    "tourism": "viewpoint"
  }
},
{
  "type": "node",
  "id": 10287243386,
  "lat": 3.0970041,
  "lon": 101.7557158,
  "tags": {
    "name": "Steel Tower View",
    "tourism": "viewpoint"
  }
},
{
  "type": "node",
  "id": 10287243392,
  "lat": 3.0979405,
  "lon": 101.7521930,
  "tags": {
    "tourism": "viewpoint"
  }
},
{
  "type": "node",
  "id": 10586972273,
  "lat": 3.1016657,
  "lon": 101.7574163,
  "tags": {
    "tourism": "viewpoint"
  }
},
{
  "type": "node",
  "id": 10586972276,
  "lat": 3.0975378,
  "lon": 101.7521085,
  "tags": {
    "name": "Oh My Maya Peak",
    "tourism": "viewpoint"
  }
},
{
  "type": "node",
  "id": 10593842310,
  "lat": 3.1651939,
  "lon": 101.7766048,
  "tags": {
    "tourism": "viewpoint"
  }
},
{
  "type": "node",
  "id": 10594433073,
  "lat": 3.2309597,
  "lon": 101.7605451,
  "tags": {
    "name": "Bukit Tabur Far East Viewpoint",
    "name:en": "Bukit Tabur Far East Viewpoint",
    "tourism": "viewpoint"
  }
},
{
  "type": "node",
  "id": 10598224432,
  "lat": 3.0865896,
  "lon": 101.6208529,
  "tags": {
    "name": "Koridor Sejarah",
    "name:zh": "新村历史文物馆",
    "tourism": "museum"
  }
},
{
  "type": "node",
  "id": 10603614926,
  "lat": 3.2207061,
  "lon": 101.7867449,
  "tags": {
    "tourism": "viewpoint"
  }
},
{
  "type": "node",
  "id": 10682484765,
  "lat": 3.1477472,
  "lon": 101.6951138,
  "tags": {
    "direction": "90",
    "tourism": "viewpoint"
  }
},
{
  "type": "node",
  "id": 10682643094,
  "lat": 3.1573789,
  "lon": 101.6907149,
  "tags": {
    "check_date": "2025-12-07",
    "contact:instagram": "https://www.instagram.com/bnmmag/",
    "description": "Aims to provide the public with an informal venue for learning about the importance of economics, Islamic banking and financial planning, along with the role that the Central Bank plays in nation building through prudent economic transformational policies",
    "email": "infomuseum@bnm.gov.my",
    "facebook": "https://www.facebook.com/BNM.MAG/",
    "fee": "no",
    "museum": "money",
    "name": "Muzium dan Galeri Seni Bank Negara Malaysia",
    "name:en": "Bank Negara Malaysia Museum and Art Gallery",
    "opening_hours": "Tu-Su 10:00-17:00",
    "phone": "+603 9179 2784",
    "short_name": "Museum BNM",
    "tourism": "museum",
    "website": "https://museum.bnm.gov.my/",
    "wikidata": "Q7393413",
    "wikipedia": "ms:Muzium Matawang Bank Negara"
  }
},
{
  "type": "node",
  "id": 10739217802,
  "lat": 3.1765705,
  "lon": 101.5997574,
  "tags": {
    "tourism": "viewpoint"
  }
},
{
  "type": "node",
  "id": 10739217803,
  "lat": 3.1758019,
  "lon": 101.5996997,
  "tags": {
    "ele": "196",
    "tourism": "viewpoint"
  }
},
{
  "type": "node",
  "id": 10904707515,
  "lat": 3.1628407,
  "lon": 101.6773198,
  "tags": {
    "direction": "120",
    "name": "Changkat Tunku Lookout Point",
    "tourism": "viewpoint"
  }
},
{
  "type": "node",
  "id": 10961369805,
  "lat": 3.1989689,
  "lon": 101.7425960,
  "tags": {
    "name": "Lot 1-39 & 1-40, Ground Floor, Roller Light (Indoor Roller Skating Rink)",
    "tourism": "attraction"
  }
},
{
  "type": "node",
  "id": 11015351705,
  "lat": 3.1552916,
  "lon": 101.7146939,
  "tags": {
    "name": "Petronas Towers Viewpoint #3",
    "tourism": "viewpoint"
  }
},
{
  "type": "node",
  "id": 11135499117,
  "lat": 3.2282559,
  "lon": 101.7350741,
  "tags": {
    "name": "Lookout Point",
    "tourism": "viewpoint"
  }
},
{
  "type": "node",
  "id": 11162549305,
  "lat": 3.1811727,
  "lon": 101.6925987,
  "tags": {
    "addr:housenumber": "D6-G-8",
    "addr:postcode": "51000",
    "contact:instagram": "aplusart.asia",
    "name": "A+ Works of Art",
    "opening_hours": "Tu-Sa 12:00-19:00",
    "tourism": "gallery",
    "website": "https://linktr.ee/aplusart"
  }
},
{
  "type": "node",
  "id": 11225287795,
  "lat": 3.2460993,
  "lon": 101.7071812,
  "tags": {
    "tourism": "viewpoint"
  }
},
{
  "type": "node",
  "id": 11226407491,
  "lat": 3.2669379,
  "lon": 101.7061190,
  "tags": {
    "description": "360 view",
    "tourism": "viewpoint"
  }
},
{
  "type": "node",
  "id": 11227687938,
  "lat": 3.1550478,
  "lon": 101.6834908,
  "tags": {
    "description": "View of Kuala Lumpur",
    "tourism": "viewpoint"
  }
},
{
  "type": "node",
  "id": 11261866685,
  "lat": 3.1465453,
  "lon": 101.6939406,
  "tags": {
    "addr:city": "Kuala Lumpur",
    "addr:housenumber": "26",
    "addr:postcode": "50050",
    "addr:street": "Jalan Sultan Hishamuddin",
    "fee": "no",
    "name": "Muzium Tekstil Negara",
    "name:de": "Nationales Textilmuseum",
    "name:en": "National Textile Museum",
    "name:hi": "राष्ट्रीय कपड़ा संग्रहालय",
    "name:ms": "Muzium Tekstil Negara",
    "name:pl": "Narodowe Muzeum Tkanin",
    "name:zh": "国家纺织品博物馆",
    "opening_hours": "09:00-17:00",
    "phone": "+60326943457",
    "start_date": "2010",
    "tourism": "museum",
    "website": "http://www.muziumtekstilnegara.gov.my",
    "wikidata": "Q19117247",
    "wikimedia_commons": "Category:National Textile Museum",
    "wikipedia": "en:National Textile Museum"
  }
},
{
  "type": "node",
  "id": 11292514141,
  "lat": 3.1489264,
  "lon": 101.7187125,
  "tags": {
    "check_date": "2024-05-19",
    "fee": "no",
    "name": "Muzium Kraf Kuala Lumpur",
    "name:en": "Craft Museum",
    "opening_hours": "09:00-17:00",
    "tourism": "museum"
  }
},
{
  "type": "node",
  "id": 11341062075,
  "lat": 3.1882993,
  "lon": 101.7461341,
  "tags": {
    "height": "195",
    "name": "Lookout Point Setiawangsa",
    "tourism": "viewpoint"
  }
},
{
  "type": "node",
  "id": 11419760693,
  "lat": 3.1830012,
  "lon": 101.7661412,
  "tags": {
    "tourism": "viewpoint"
  }
},
{
  "type": "node",
  "id": 11497118871,
  "lat": 3.1475486,
  "lon": 101.7095135,
  "tags": {
    "name": "Ur-Mu",
    "name:en": "UR-MU",
    "opening_hours": "Tu-Su 10:00-08:30",
    "tourism": "gallery",
    "website": "https://ur-mu.com/"
  }
},
{
  "type": "node",
  "id": 11515771739,
  "lat": 3.0847610,
  "lon": 101.6707926,
  "tags": {
    "alt_name": "东艺馆",
    "alt_name:zh": "东艺馆",
    "alt_name:zh-Hans": "东艺馆",
    "alt_name:zh-Hant": "東藝館",
    "contact:facebook": "https://www.facebook.com/OrientalArtCulturalCenter/",
    "name": "Oriental Art & Cultural Center",
    "name:en": "Oriental Art & Cultural Center",
    "name:zh": "东方人文艺术馆",
    "name:zh-Hans": "东方人文艺术馆",
    "name:zh-Hant": "東方人文藝術館",
    "phone": "+60-1120941869",
    "tourism": "gallery",
    "website": "https://www.oacc.my/"
  }
},
{
  "type": "node",
  "id": 11596077608,
  "lat": 3.1447038,
  "lon": 101.6965097,
  "tags": {
    "addr:city": "Kuala Lumpur",
    "addr:housenumber": "131",
    "addr:postcode": "50000",
    "addr:street": "Jalan Tun H.S. Lee",
    "name": "Ur-Mu Tun HS Lee",
    "tourism": "museum"
  }
},
{
  "type": "node",
  "id": 11694943469,
  "lat": 3.1440392,
  "lon": 101.7110373,
  "tags": {
    "name": "MiniNature Malaysia",
    "note": "Open daily from 10:00-22:00",
    "tourism": "attraction",
    "website": "https://minnature.com/"
  }
},
{
  "type": "node",
  "id": 11730845414,
  "lat": 3.1738964,
  "lon": 101.6015451,
  "tags": {
    "tourism": "viewpoint"
  }
},
{
  "type": "node",
  "id": 11730845421,
  "lat": 3.1746249,
  "lon": 101.6019602,
  "tags": {
    "tourism": "viewpoint"
  }
},
{
  "type": "node",
  "id": 11731046981,
  "lat": 3.1782175,
  "lon": 101.6172051,
  "tags": {
    "tourism": "viewpoint"
  }
},
{
  "type": "node",
  "id": 11732297073,
  "lat": 3.1810215,
  "lon": 101.6385582,
  "tags": {
    "tourism": "viewpoint"
  }
},
{
  "type": "node",
  "id": 11733243814,
  "lat": 3.1757684,
  "lon": 101.6011280,
  "tags": {
    "tourism": "viewpoint"
  }
},
{
  "type": "node",
  "id": 11766259873,
  "lat": 3.1683416,
  "lon": 101.6988085,
  "tags": {
    "name": "Muzium Bioperubatan",
    "operator": "Institut Penyelidikan Perubatan",
    "tourism": "museum"
  }
},
{
  "type": "node",
  "id": 11832151817,
  "lat": 3.1526640,
  "lon": 101.7035782,
  "tags": {
    "name": "Kuala Lumpur Tower",
    "name:en": "Kuala Lumpur Tower",
    "name:ms": "Menara Kuala Lumpur",
    "name:zh": "吉隆坡塔",
    "name:zh-Hans": "吉隆坡塔",
    "name:zh-Hant": "吉隆坡塔",
    "tourism": "attraction"
  }
},
{
  "type": "node",
  "id": 11832151818,
  "lat": 3.1419189,
  "lon": 101.6920986,
  "tags": {
    "name": "National Mosque of Malaysia",
    "tourism": "attraction"
  }
},
{
  "type": "node",
  "id": 11832445007,
  "lat": 3.0727885,
  "lon": 101.7331092,
  "tags": {
    "tourism": "viewpoint"
  }
},
{
  "type": "node",
  "id": 11832445029,
  "lat": 3.0751882,
  "lon": 101.7334803,
  "tags": {
    "tourism": "viewpoint"
  }
},
{
  "type": "node",
  "id": 11871495057,
  "lat": 3.1562452,
  "lon": 101.6348012,
  "tags": {
    "ele": "221",
    "name": "Dinosaur Egg Rock",
    "tourism": "viewpoint"
  }
},
{
  "type": "node",
  "id": 11878532644,
  "lat": 3.2484350,
  "lon": 101.6319194,
  "tags": {
    "description": "Check point with View point",
    "ele": "288",
    "tourism": "viewpoint"
  }
},
{
  "type": "node",
  "id": 11992352981,
  "lat": 3.1203313,
  "lon": 101.6543511,
  "tags": {
    "addr:floor": "Level 2",
    "addr:housename": "Main Library",
    "fee": "no",
    "name": "Universiti Malaya Art Gallery",
    "name:ms": "Galeri Seni Universiti Malaya",
    "short_name": "UMAG",
    "tourism": "gallery"
  }
},
{
  "type": "node",
  "id": 12001002231,
  "lat": 3.1206040,
  "lon": 101.6560878,
  "tags": {
    "name": "Sudut Pidato",
    "name:en": "Speaker's Corner",
    "name:ms": "Sudut Pidato",
    "tourism": "attraction"
  }
},
{
  "type": "node",
  "id": 12043210293,
  "lat": 3.1549974,
  "lon": 101.7153941,
  "tags": {
    "name": "Petronas tower viewpoint #5",
    "tourism": "viewpoint"
  }
},
{
  "type": "node",
  "id": 12043216925,
  "lat": 3.1546379,
  "lon": 101.7155110,
  "tags": {
    "name": "Petronas towers viewpoint #6",
    "tourism": "viewpoint"
  }
},
{
  "type": "node",
  "id": 12109839558,
  "lat": 3.0206079,
  "lon": 101.7115821,
  "tags": {
    "fee": "no",
    "name": "Beryl's",
    "tourism": "museum"
  }
},
{
  "type": "node",
  "id": 12147363374,
  "lat": 3.1525657,
  "lon": 101.7161564,
  "tags": {
    "access": "customers",
    "description": "Exclusive for in-house guests of Imperial Lexis Hotel.",
    "direction": "330",
    "level": "51",
    "name": "SkyDeck",
    "name:en": "SkyDeck",
    "opening_hours": "Mo-Su 09:00-22:00",
    "tourism": "viewpoint",
    "website": "https://www.imperiallexiskl.com/facilities/skydeck"
  }
},
{
  "type": "node",
  "id": 12191953998,
  "lat": 3.1874835,
  "lon": 101.7494788,
  "tags": {
    "name": "City View lookout point",
    "tourism": "viewpoint"
  }
},
{
  "type": "node",
  "id": 12246256071,
  "lat": 3.1097364,
  "lon": 101.7767682,
  "tags": {
    "alt_name": "Saga Hill Station;Saga Hilltop;Saga Hill",
    "alt_name:ms": "Stesen Bukit Saga;Bukit Saga",
    "description": "Hiking rest area with tents, picnic tables, benches, hammocks, basic fitness equipments and decorations.",
    "name": "Puncak Saga",
    "name:en": "Saga Top",
    "note": "This is NOT a hill peak; but a location along the hill crest (permatang).",
    "place": "locality",
    "tourism": "attraction"
  }
},
{
  "type": "node",
  "id": 12246256084,
  "lat": 3.0942241,
  "lon": 101.7700751,
  "tags": {
    "tourism": "viewpoint"
  }
},
{
  "type": "node",
  "id": 12248364081,
  "lat": 3.0274121,
  "lon": 101.6308375,
  "tags": {
    "tourism": "viewpoint"
  }
},
{
  "type": "node",
  "id": 12469300177,
  "lat": 3.1399242,
  "lon": 101.7089805,
  "tags": {
    "addr:city": "Kuala Lumpur",
    "addr:housenumber": "Level G & 1 BBCC Hab",
    "addr:postcode": "55100",
    "addr:street": "Jalan Hang Tuah",
    "air_conditioning": "yes",
    "description": "A digital media art gallery and museum at Bukit Bintang City Centre.",
    "level": "0",
    "museum": "art",
    "name": "Immersify Kuala Lumpur",
    "operator": "Immersify (KL) Sdn. Bhd.",
    "operator:type": "private",
    "toilets": "yes",
    "tourism": "museum",
    "website": "https://immersifykl.com/"
  }
},
{
  "type": "node",
  "id": 12483500601,
  "lat": 3.1053931,
  "lon": 101.6778483,
  "tags": {
    "name": "The Tree of Hope",
    "name:en": "The Tree of Hope",
    "tourism": "attraction"
  }
},
{
  "type": "node",
  "id": 12540592418,
  "lat": 3.1456189,
  "lon": 101.6965517,
  "tags": {
    "alt_name": "Sin Sze Si Ya Temple Pioneers of Kuala Lumpur Museum",
    "alt_name:en": "Sin Sze Si Ya Temple Pioneers of Kuala Lumpur Museum",
    "alt_name:zh": "吉隆坡师爷庙拓荒博物馆",
    "alt_name:zh-Hans": "吉隆坡师爷庙拓荒博物馆",
    "alt_name:zh-Hant": "吉隆坡師爺爺拓荒博物館",
    "contact:facebook": "https://www.facebook.com/p/%E5%90%89%E9%9A%86%E5%9D%A1%E5%B8%88%E7%88%B7%E5%BA%99%E6%8B%93%E8%8D%92%E5%8D%9A%E7%89%A9%E9%A6%86-Sin-Sze-Si-Ya-Temple-Pioneers-of-Kuala-Lumpur-Museum-100090781340904/",
    "email": "sytemple.museum@gmail.com",
    "name": "Pioneers Of Kuala Lumpur Museum",
    "name:en": "Pioneers Of Kuala Lumpur Museum",
    "name:zh": "吉隆坡拓荒博物馆",
    "name:zh-Hans": "吉隆坡拓荒博物馆",
    "name:zh-Hant": "吉隆坡拓荒博物館",
    "operator": "Sin Sze Si Ya Temple",
    "phone": "+60-123582113",
    "tourism": "museum",
    "website": "https://www.facebook.com/p/%E5%90%89%E9%9A%86%E5%9D%A1%E5%B8%88%E7%88%B7%E5%BA%99%E6%8B%93%E8%8D%92%E5%8D%9A%E7%89%A9%E9%A6%86-Sin-Sze-Si-Ya-Temple-Pioneers-of-Kuala-Lumpur-Museum-100090781340904/"
  }
},
{
  "type": "node",
  "id": 12555555291,
  "lat": 3.2275425,
  "lon": 101.6189875,
  "tags": {
    "charge": "10 MYR",
    "fee": "yes",
    "height": "48",
    "man_made": "tower",
    "name": "Lookout Tower",
    "ref": "5",
    "tourism": "viewpoint"
  }
},
{
  "type": "node",
  "id": 12874684841,
  "lat": 3.1456961,
  "lon": 101.7561079,
  "tags": {
    "addr:housenumber": "11",
    "level": "2",
    "name": "Rocky’s Cat Club",
    "tourism": "zoo",
    "zoo": "petting_zoo"
  }
},
{
  "type": "node",
  "id": 12879284885,
  "lat": 3.2245466,
  "lon": 101.7744007,
  "tags": {
    "tourism": "viewpoint"
  }
},
{
  "type": "node",
  "id": 12897287741,
  "lat": 3.2114411,
  "lon": 101.7954166,
  "tags": {
    "name": "View of Kubang Gajah Falls",
    "tourism": "viewpoint",
    "wikimedia_commons": "File:Sofea Jane Waterfall 01.jpg"
  }
},
{
  "type": "node",
  "id": 12925544001,
  "lat": 3.1401823,
  "lon": 101.7000564,
  "tags": {
    "tourism": "viewpoint"
  }
},
{
  "type": "node",
  "id": 13001345395,
  "lat": 3.1509489,
  "lon": 101.6355608,
  "tags": {
    "description": "View of KL buildings",
    "tourism": "viewpoint"
  }
},
{
  "type": "node",
  "id": 13026286483,
  "lat": 3.0815659,
  "lon": 101.5898622,
  "tags": {
    "name": "Core Design Gallery",
    "phone": "0356121168",
    "tourism": "gallery",
    "website": "https://corecontemporaryart.com/"
  }
},
{
  "type": "node",
  "id": 13068256101,
  "lat": 3.1427984,
  "lon": 101.6986021,
  "tags": {
    "name": "View on Merdeka Tower 118",
    "tourism": "viewpoint"
  }
},
{
  "type": "node",
  "id": 13068263801,
  "lat": 3.1427857,
  "lon": 101.7008622,
  "tags": {
    "name": "View on Merdeka Tower 118",
    "tourism": "viewpoint"
  }
},
{
  "type": "node",
  "id": 13068265101,
  "lat": 3.1427102,
  "lon": 101.7013862,
  "tags": {
    "name": "View on Merdeka Tower 118",
    "tourism": "viewpoint"
  }
},
{
  "type": "node",
  "id": 13099936092,
  "lat": 3.1563812,
  "lon": 101.7160506,
  "tags": {
    "direction": "280",
    "name": "Hill Viewpoint",
    "tourism": "viewpoint"
  }
},
{
  "type": "node",
  "id": 13302972993,
  "lat": 3.1128638,
  "lon": 101.6707053,
  "tags": {
    "name": "Muzium RTM",
    "name:en": "RTM Museum",
    "tourism": "museum"
  }
},
{
  "type": "node",
  "id": 13382572701,
  "lat": 3.2248703,
  "lon": 101.7765653,
  "tags": {
    "name": "Checkpoint 1",
    "tourism": "attraction"
  }
},
{
  "type": "node",
  "id": 13390296100,
  "lat": 3.1386614,
  "lon": 101.7110156,
  "tags": {
    "name": "Art Is Art Gallery",
    "name:en": "Art Is Art Gallery",
    "phone": "+60-163318929",
    "tourism": "gallery",
    "website": "https://www.facebook.com/artisartgallery/"
  }
},
{
  "type": "node",
  "id": 13394723207,
  "lat": 3.1445007,
  "lon": 101.6958395,
  "tags": {
    "name": "Godzilla x Kong Mural",
    "tourism": "attraction"
  }
},
{
  "type": "node",
  "id": 13419360499,
  "lat": 3.1238763,
  "lon": 101.6978803,
  "tags": {
    "alt_name": "吉隆坡广东义山马来亚南侨机工纪念馆",
    "alt_name:zh": "吉隆坡广东义山马来亚南侨机工纪念馆",
    "alt_name:zh-Hans": "吉隆坡广东义山马来亚南侨机工纪念馆",
    "alt_name:zh-Hant": "吉隆坡廣東義山馬來亞南僑機工紀念館",
    "museum": "history",
    "name": "The Nanyang Volunteer Drivers & Mechanics Memorial",
    "name:en": "The Nanyang Volunteer Drivers & Mechanics Memorial",
    "name:zh": "马来亚南侨机工纪念馆",
    "name:zh-Hans": "马来亚南侨机工纪念馆",
    "name:zh-Hant": "馬來亞南僑機工紀念館",
    "phone": "+60-321410838",
    "tourism": "museum"
  }
},
{
  "type": "node",
  "id": 13428966985,
  "lat": 3.1975287,
  "lon": 101.7201924,
  "tags": {
    "addr:city": "Kuala Lumpur",
    "addr:housenumber": "16-3",
    "addr:postcode": "53200",
    "addr:street": "Jalan 9/23A",
    "air_conditioning": "yes",
    "contact:facebook": "https://www.facebook.com/CLHMFKLMY/",
    "email": "smlee.ipad@gmail.com",
    "fax": "+60-341428697",
    "internet_access": "yes",
    "internet_access:fee": "customers",
    "museum": "history",
    "name": "Chan Lok Hung Commemorative Hall",
    "name:en": "Chan Lok Hung Commemorative Hall",
    "name:zh": "陈洛汉纪念馆",
    "name:zh-Hans": "陈洛汉纪念馆",
    "name:zh-Hant": "陳洛漢紀念館",
    "phone": "+60-192275289",
    "tourism": "museum",
    "website": "https://www.facebook.com/CLHMFKLMY/"
  }
},
{
  "type": "node",
  "id": 13478173506,
  "lat": 3.0836991,
  "lon": 101.6702179,
  "tags": {
    "name": "宋居艺术文化馆",
    "name:zh": "宋居艺术文化馆",
    "name:zh-Hans": "宋居艺术文化馆",
    "name:zh-Hant": "宋居藝術文化館",
    "tourism": "gallery"
  }
},
{
  "type": "node",
  "id": 13521174733,
  "lat": 3.1516557,
  "lon": 101.6354862,
  "tags": {
    "name": "Skyline Viewpoint",
    "tourism": "viewpoint"
  }
},
{
  "type": "node",
  "id": 13527820228,
  "lat": 3.1418033,
  "lon": 101.6818814,
  "tags": {
    "contact:email": "enquiries@serinegara.com.my",
    "contact:facebook": "https://www.facebook.com/serinegara.kl",
    "contact:instagram": "https://www.instagram.com/serinegara.kl",
    "contact:tiktok": "https://www.tiktok.com/@serinegara.kl",
    "contact:youtube": "https://www.youtube.com/@serinegara",
    "description": "Step into galleries that reveal the milestones, struggles, and triumphs behind Malaysia’s road to Merdeka. Registration on website compulsory.",
    "fee": "no",
    "level": "0;1",
    "museum": "history",
    "name": "Galeri Seri Negara",
    "name:en": "Seri Negara Gallery",
    "opening_hours": "Tu-Su 10:00-18:00 \"Reserve a slot via website\"",
    "phone": "+6011 2700 3616",
    "reservation": "required",
    "tourism": "museum",
    "website": "https://serinegara.com.my/"
  }
},
{
  "type": "node",
  "id": 13527849283,
  "lat": 3.1486259,
  "lon": 101.6944497,
  "tags": {
    "addr:city": "Kuala Lumpur",
    "addr:postcode": "50050",
    "addr:street": "Jalan Raja",
    "building:levels": "2",
    "contact:email": "enquiries@bsas.com.my",
    "contact:instagram": "https://www.instagram.com/bsas.kl/",
    "contact:tiktok": "https://www.tiktok.com/@bsas.kl",
    "description": "Exhibition spaces and galleries where you can immerse yourself in the building’s history and significance.  Retail and craft-making spaces featuring artisan workshops and unique items, plus a visitor centre to guide you through the complex.",
    "fee": "no",
    "image": "https://photos.app.goo.gl/EJ1KvgXRpJ9bjmTy8",
    "museum": "history",
    "name": "Bangunan Sultan Abdul Samad",
    "name:en": "Sultan Abdul Samad Building",
    "name:hi": "सुल्तान अब्दुल समद भवन",
    "name:tr": "Sultan Abdülsamet Binası",
    "name:zh": "苏丹阿都沙末大厦",
    "opening_hours": "Mo-Su 09:00-18:00",
    "operator": "Warisan KL",
    "operator:type": "public",
    "start_date": "2026-02-01",
    "tourism": "museum",
    "website": "https://bsas.com.my/"
  }
},
{
  "type": "node",
  "id": 13527855002,
  "lat": 3.1488470,
  "lon": 101.6945538,
  "tags": {
    "addr:unit": "G-2",
    "level": "0",
    "name": "Galeri Royal Selangor",
    "name:en": "Royal Selangor Gallery",
    "opening_hours": "Mo-Su 09:00-18:00",
    "short_name": "RSG",
    "tourism": "gallery"
  }
},
{
  "type": "node",
  "id": 13586146004,
  "lat": 3.1416805,
  "lon": 101.6819135,
  "tags": {
    "description": "Experience a rotating collection of artworks that celebrate Malaysia’s heritage, culture, and creative expression. Can be accessed even without a slot for the guided tour.",
    "level": "0",
    "name": "Ruang Merdeka",
    "tourism": "gallery"
  }
},
{
  "type": "node",
  "id": 13598068743,
  "lat": 3.1444044,
  "lon": 101.6741826,
  "tags": {
    "description": "Galeria Sri Perdana used to be the official residence of Tun Dr. Mahathir Mohamad, the fourth Prime Minister of Malaysia.",
    "fee": "no",
    "name": "Galeria Sri Perdana",
    "opening_hours": "10:00-17:30; Fr 10:00-12:00,15:00-17:30; Mo off",
    "phone": "+60 32072 0033",
    "previously": "way:1408545187",
    "tourism": "museum",
    "website": "https://www.arkib.gov.my/en/web/guest/galeria-sri-perdana",
    "wikidata": "Q105197399",
    "wikimedia_commons": "Category:Galeria Sri Perdana",
    "wikipedia": "ms:Galeria Sri Perdana"
  }
},
{
  "type": "node",
  "id": 13685904154,
  "lat": 3.1069576,
  "lon": 101.6602421,
  "tags": {
    "tourism": "viewpoint"
  }
},
{
  "type": "node",
  "id": 13689085164,
  "lat": 3.1391652,
  "lon": 101.6979735,
  "tags": {
    "description": "马来西亚陈嘉庚基金于2013年10月创立马来西亚陈嘉庚纪念馆，设馆于吉隆坡暨雪兰获中华大会堂三楼，是马来西亚、乃至东南亚第一座以陈嘉庚为人物主题的纪念馆，为公众展现一位离开我们大半世纪的先贤前辈，让他高大的形象， 重新进入人们的视界。",
    "museum": "history",
    "name": "马来西亚陈嘉庚纪念馆",
    "name:zh": "马来西亚陈嘉庚纪念馆",
    "name:zh-Hans": "马来西亚陈嘉庚纪念馆",
    "name:zh-Hant": "馬來西亞陳嘉庚紀念館",
    "operator": "Tan Kah Kee Foundation",
    "tourism": "museum",
    "website": "https://mytkkf.com.my/cn/%E5%85%B3%E4%BA%8E%E6%88%91%E4%BB%AC/%E9%A9%AC%E6%9D%A5%E8%A5%BF%E4%BA%9A%E9%99%88%E5%98%89%E5%BA%9A%E7%BA%AA%E5%BF%B5%E9%A6%86/"
  }
},
{
  "type": "way",
  "id": 23069513,
  "center": {
    "lat": 3.1486388,
    "lon": 101.6936481
  },
  "tags": {
    "historic": "heritage",
    "image": "https://photos.app.goo.gl/kXLzFbRmPR81XUzo9",
    "name": "Dataran Merdeka",
    "name:fr": "Place de l'indépendance",
    "name:hi": "स्वतंत्रता स्क्वयर",
    "name:ja": "ムルデカ・スクエア",
    "name:ms": "Dataran Merdeka",
    "name:ms-Arab": "داتارن مرديك",
    "name:zh": "独立广场",
    "name:zh-Hans": "独立广场",
    "name:zh-Hant": "獨立廣場",
    "official_name": "Dataran Merdeka",
    "old_name": "Padang Kelab Selangor;Parade Ground",
    "place": "square",
    "tourism": "attraction",
    "website": "http://www.visitkl.gov.my/visitklv2/index.php?r=column/cthree&id=55&place_id=979",
    "wikidata": "Q3043065",
    "wikimedia_commons": "Category:Dataran Merdeka",
    "wikipedia": "en:Independence Square (Kuala Lumpur)"
  }
},
{
  "type": "way",
  "id": 23766164,
  "center": {
    "lat": 3.1490460,
    "lon": 101.6992780
  },
  "tags": {
    "addr:city": "Kuala Lumpur",
    "addr:housenumber": "98",
    "addr:street": "Jalan Gereja",
    "building": "yes",
    "check_date": "2025-08-23",
    "email": "muziumtm@tm.com.my",
    "name": "Muzium Telekom",
    "name:en": "Telekom Museum",
    "official_name": "Muzium Telekomunikasi Negara",
    "opening_hours": "Mo-Su 9:00-17:00",
    "phone": "01163378118",
    "start_date": "1994",
    "tourism": "museum",
    "wikidata": "Q7393613",
    "wikimedia_commons": "Category:Telekom Museum",
    "wikipedia": "en:Telekom Museum"
  }
},
{
  "type": "way",
  "id": 23768608,
  "center": {
    "lat": 3.1453613,
    "lon": 101.6958024
  },
  "tags": {
    "highway": "pedestrian",
    "name": "Jalan Hang Kasturi",
    "name:ms": "Jalan Hang Kasturi",
    "name:zh": "汉卡斯都里路",
    "name:zh-Hans": "汉卡斯都里路",
    "name:zh-Hant": "漢卡斯都里路",
    "old_name": "Jalan Rodger;Rodger Road",
    "surface": "paving_stones",
    "tourism": "attraction",
    "wheelchair": "yes"
  }
},
{
  "type": "way",
  "id": 24520993,
  "center": {
    "lat": 3.1541149,
    "lon": 101.7103343
  },
  "tags": {
    "highway": "footway",
    "name": "KL City Walk",
    "name:en": "KL City Walk",
    "short_name": "KLCW",
    "tourism": "attraction"
  }
},
{
  "type": "way",
  "id": 24577285,
  "center": {
    "lat": 3.1456516,
    "lon": 101.6963891
  },
  "tags": {
    "addr:housenumber": "14A",
    "addr:postcode": "50050",
    "addr:street": "Lebuh Pudu",
    "air_conditioning": "no",
    "amenity": "place_of_worship",
    "building": "temple",
    "building:levels": "1",
    "name": "Sin Sze Si Ya Temple",
    "name:en": "Sin Sze Si Ya Temple",
    "name:it": "Sin Sze Si Ya",
    "name:zh": "仙四师爷庙",
    "name:zh-Hans": "仙四师爷庙",
    "name:zh-Hant": "仙四師爺廟",
    "religion": "taoist",
    "tourism": "attraction",
    "wheelchair": "yes",
    "wikidata": "Q2494864",
    "wikimedia_commons": "Category:Sin Sze Si Ya Temple",
    "wikipedia": "en:Sin Sze Si Ya Temple"
  }
},
{
  "type": "way",
  "id": 28287741,
  "center": {
    "lat": 3.1529423,
    "lon": 101.7026404
  },
  "tags": {
    "alt_name": "Hutan Simpan Bukit Nanas",
    "alt_name:en": "Bukit Nanas Forest Reserve",
    "landuse": "forest",
    "name": "Taman Eko Rimba Kuala Lumpur",
    "name:en": "KL Forest Eco-Park",
    "name:ja": "KL森林公園",
    "name:ms": "Taman Eko Rimba Kuala Lumpur",
    "name:zh": "吉隆坡森林生态公园（咖啡山）",
    "name:zh-Hans": "吉隆坡森林生态公园（咖啡山）",
    "name:zh-Hant": "吉隆坡森林生態公園（咖啡山）",
    "short_name": "TERKL",
    "source": "Bing",
    "tourism": "attraction",
    "wikidata": "Q31322",
    "wikimedia_commons": "Category:Bukit Nanas",
    "wikipedia": "en:Bukit Nanas"
  }
},
{
  "type": "way",
  "id": 133076253,
  "center": {
    "lat": 3.0696115,
    "lon": 101.6067748
  },
  "tags": {
    "addr:city": "Petaling Jaya",
    "addr:housenumber": "3",
    "addr:place": "Bandar Sunway",
    "addr:postcode": "47500",
    "name": "Sunway Lagoon",
    "name:en": "Sunway Lagoon",
    "name:zh": "双威主题乐园",
    "name:zh-Hans": "双威主题乐园",
    "name:zh-Hant": "雙威主題樂園",
    "opening_hours": "We-Mo 10:00-23:00",
    "tourism": "theme_park",
    "website": "https://sunwaylagoon.com/",
    "wikidata": "Q3503999",
    "wikimedia_commons": "Category:Sunway Lagoon",
    "wikipedia": "en:Sunway Lagoon"
  }
},
{
  "type": "way",
  "id": 158527518,
  "center": {
    "lat": 3.1494931,
    "lon": 101.6448500
  },
  "tags": {
    "building": "public",
    "description": "The main aim of the science centre is to promote greater understanding and interest in science and technology. Adult ticket priced at RM6 and student ticket at RM3",
    "email": "psn@psn.gov.my",
    "facebook": "https://www.facebook.com/PusatSainsNegara",
    "fee": "yes",
    "museum": "science",
    "name": "Pusat Sains Negara",
    "name:en": "National Science Centre",
    "name:zh": "国家科学中心",
    "opening_hours": "09:00-17:00; Fr off",
    "opening_hours:covid19": "off",
    "phone": "+60 32089 3400",
    "short_name": "PSN",
    "start_date": "1996",
    "tourism": "museum",
    "website": "https://www.psn.gov.my/",
    "wikidata": "Q7261706",
    "wikimedia_commons": "Category:Pusat Sains Negara",
    "wikipedia": "en:Pusat Sains Negara"
  }
},
{
  "type": "way",
  "id": 169403450,
  "center": {
    "lat": 3.1325443,
    "lon": 101.6958886
  },
  "tags": {
    "addr:city": "Kuala Lumpur",
    "addr:street": "Jalan Istana",
    "alt_name": "Old Istana Negara",
    "alt_name:en": "Old Istana Negara",
    "alt_name:zh": "旧国家皇宫",
    "alt_name:zh-Hans": "旧国家皇宫",
    "alt_name:zh-Hant": "舊國家皇宮",
    "building": "yes",
    "castle_type": "palace",
    "email": "pr.mdr@jmm.gov.my",
    "historic": "castle",
    "name": "Muzium Diraja",
    "name:en": "Royal Museum",
    "name:ja": "ロイヤルミュージアム",
    "name:ms": "Muzium Diraja",
    "name:zh": "旧国家皇宫博物馆",
    "name:zh-Hans": "旧国家皇宫博物馆",
    "name:zh-Hant": "舊國家皇宮博物館",
    "opening_hours": "Mo-Sa 09:00-17:00; Su off",
    "phone": "+6032272 1896",
    "tourism": "museum",
    "website": "http://www.jmm.gov.my/ms/muzium/muzium-diraja",
    "wikidata": "Q1674837",
    "wikimedia_commons": "Category:Former Istana Negara, Kuala Lumpur",
    "wikipedia": "en:Istana Negara, Jalan Istana"
  }
},
{
  "type": "way",
  "id": 209205495,
  "center": {
    "lat": 3.1291743,
    "lon": 101.7944460
  },
  "tags": {
    "abandoned:building": "yes",
    "name": "Ampang Look Out Tower",
    "tourism": "viewpoint"
  }
},
{
  "type": "way",
  "id": 279944536,
  "center": {
    "lat": 3.1579705,
    "lon": 101.7117610
  },
  "tags": {
    "3dmr": "3",
    "addr:country": "MY",
    "alt_name": "Petronas Twin Towers",
    "alt_name:ja": "ペトロナスタワー",
    "alt_name:zh": "佩重納斯大廈",
    "building": "office",
    "check_date": "2021-04-21",
    "image": "https://photos.app.goo.gl/V2NypLDxBCndaR1K6",
    "is_in:country": "Malaysia",
    "is_in:country_code": "MY",
    "is_in:iso_3166_2": "MY-14",
    "layer": "1",
    "name": "Menara Berkembar Petronas",
    "name:ar": "برجا بتروناس التوأم",
    "name:el": "Πύργοι Πετρόνας",
    "name:en": "Petronas Towers",
    "name:es": "Torres Petronas",
    "name:fr": "Tours Petronas",
    "name:hi": "पेट्रोनास जुड़वा मीनार",
    "name:ja": "ペトロナスツインタワー",
    "name:ko": "페트로나스 트윈 타워",
    "name:my": "ပက္တရိုးနက်စ် တာဝါ",
    "name:sr": "Башни Петронас",
    "name:tr": "Petronas Towers",
    "name:zh": "国家石油公司双峰塔",
    "operator": "KLCC Property Holdings Berhad",
    "phone": "+60 3-2331 8080",
    "start_date": "1999",
    "tourism": "attraction",
    "url": "https://youtu.be/3xqyeSogm0w?si=8ZNmrJLUmeF-wsTb",
    "wikidata": "Q83063",
    "wikimedia_commons": "Category:Petronas Towers",
    "wikipedia": "en:Petronas Towers"
  }
},
{
  "type": "way",
  "id": 323394984,
  "center": {
    "lat": 3.1377090,
    "lon": 101.6873810
  },
  "tags": {
    "addr:city": "Kuala Lumpur",
    "addr:postcode": "50566",
    "addr:street": "Jalan Damansara",
    "air_conditioning": "yes",
    "building": "public",
    "building:levels": "3",
    "email": "prmuziumnegara@jmm.gov.my",
    "fee": "yes",
    "museum": "history",
    "name": "Muzium Negara",
    "name:de": "Nationalmuseum",
    "name:en": "National Museum",
    "name:es": "Museo Nacional de Malasia",
    "name:ms": "Muzium Negara",
    "name:pl": "Muzeum Narodowe",
    "name:zh": "国家博物馆",
    "name:zh-Hans": "国家博物馆",
    "name:zh-Hant": "國家博物館",
    "opening_hours": "09:00-17:00",
    "phone": "+60 3-2267 1000",
    "start_date": "1963",
    "tourism": "museum",
    "website": "https://www.muziumnegara.gov.my/",
    "wikidata": "Q917630",
    "wikimedia_commons": "Category:National Museum (Malaysia)",
    "wikipedia": "en:National Museum (Malaysia)"
  }
},
{
  "type": "way",
  "id": 358003725,
  "center": {
    "lat": 3.1237676,
    "lon": 101.6547002
  },
  "tags": {
    "addr:housenumber": "F",
    "alt_name": "J14 - Block F (ISB)",
    "building": "university",
    "building:levels": "3",
    "museum": "zoology",
    "name": "J14 - Muzium Zoologi Institut Sains Biologi",
    "name:en": "J14 - Zoology Museum",
    "name:ms": "J14 - Muzium Zoologi Institut Sains Biologi",
    "roof:colour": "#625b61",
    "tourism": "museum",
    "wheelchair": "yes"
  }
},
{
  "type": "way",
  "id": 358004197,
  "center": {
    "lat": 3.1181972,
    "lon": 101.6531754
  },
  "tags": {
    "building": "yes",
    "building:levels": "3",
    "email": "zahirahnoor@um.edu.my",
    "facebook": "https://www.facebook.com/Muzium.Seni.Asia.Galeri.Seni.UM/",
    "fee": "no",
    "museum": "art",
    "name": "Muzium Seni Asia",
    "name:en": "Museum of Asian Art",
    "name:ms": "Muzium Seni Asia",
    "name:zh": "亚洲艺术博物馆",
    "name:zh-Hans": "亚洲艺术博物馆",
    "name:zh-Hant": "亞洲藝術博物館",
    "opening_hours": "Mo-Th 09:00-13:00,14:00-17:00; Fr 09:00-12:15,14:45-17:00; Sa,Su,PH off",
    "phone": "+603 7967 3805",
    "tourism": "museum",
    "website": "http://www.museum.um.edu.my/",
    "wikidata": "Q7393569",
    "wikimedia_commons": "Category:Museum of Asian Art, Kuala Lumpur",
    "wikipedia": "en:Museum of Asian Art, Kuala Lumpur"
  }
},
{
  "type": "way",
  "id": 375635986,
  "center": {
    "lat": 3.1502766,
    "lon": 101.7164855
  },
  "tags": {
    "building": "historic",
    "charge": "20 MYR",
    "description": "Only accessible with guided tours that last for 30mins: Tuesdays - Saturdays: 11 AM & 3PM. Groups need to book in advance.",
    "fee": "yes",
    "museum": "history",
    "name": "Rumah Penghulu Abu Seman",
    "name:en": "The Penghulu Abu Seman House",
    "name:zh": "阿布瑟曼酋长故居",
    "opening_hours": "Tu-Sa 11:00-17:00",
    "operator": "BWM",
    "operator:type": "ngo",
    "tourism": "museum"
  }
},
{
  "type": "way",
  "id": 386523813,
  "center": {
    "lat": 3.1376947,
    "lon": 101.6880871
  },
  "tags": {
    "building": "yes",
    "museum": "art",
    "name": "Istana 1",
    "name:ms": "Istana 1",
    "tourism": "museum"
  }
},
{
  "type": "way",
  "id": 386523816,
  "center": {
    "lat": 3.1376831,
    "lon": 101.6884371
  },
  "tags": {
    "alt_name:en": "Malay World Ethnology Museum",
    "building": "public",
    "fee": "no",
    "name": "Muzium Etnologi Dunia Melayu",
    "name:en": "Malay World Gallery",
    "name:ms": "Muzium Etnologi Dunia Melayu",
    "old_name:en": "Malay World Ethnological Museum",
    "opening_hours": "09:00-17:30",
    "phone": "+603 2282 7399",
    "tourism": "museum",
    "website": "http://www.jmm.gov.my/ms/muzium-etnologi-dunia-melayu",
    "wikidata": "Q20454718",
    "wikipedia": "ms:Muzium Etnologi Dunia Melayu"
  }
},
{
  "type": "way",
  "id": 391561809,
  "center": {
    "lat": 3.1948551,
    "lon": 101.7081331
  },
  "tags": {
    "name": "Memorial Tun P. Ramlee",
    "tourism": "attraction"
  }
},
{
  "type": "way",
  "id": 428954061,
  "center": {
    "lat": 3.1737611,
    "lon": 101.7050833
  },
  "tags": {
    "addr:housenumber": "2",
    "addr:postcode": "53200",
    "addr:street": "Jalan Temerloh",
    "building": "public",
    "building:levels": "3",
    "check_date": "2024-05-26",
    "fee": "no",
    "name": "Balai Seni Visual Negara",
    "name:en": "National Visual Arts Gallery",
    "name:zh": "马来西亚国家美术馆",
    "old_name": "National Art Gallery",
    "opening_hours": "Mo-Fr 09:00-19:00",
    "phone": "+60 340 267 000",
    "roof:levels": "0",
    "tourism": "gallery",
    "website": "https://www.artgallery.gov.my/",
    "wikidata": "Q3294835",
    "wikimedia_commons": "Category:National Art Gallery Malaysia",
    "wikipedia": "en:National Visual Arts Gallery (Malaysia)"
  }
},
{
  "type": "way",
  "id": 438898246,
  "center": {
    "lat": 3.1435168,
    "lon": 101.6881727
  },
  "tags": {
    "addr:city": "Kuala Lumpur",
    "addr:housenumber": "920",
    "addr:postcode": "50480",
    "addr:street": "Jalan Cenderawasih",
    "charge": "Adult RM63. Child RM42",
    "description": "Public aviary. Foreigners: RM63 (adults), RM42 (children). Malaysian: RM27 (adults), RM13 (children).",
    "email": "info@klbirdpark.com",
    "fee": "yes",
    "name": "Taman Burung Kuala Lumpur",
    "name:en": "Kuala Lumpur Bird Park",
    "name:zh": "吉隆坡飞禽公园",
    "opening_hours": "09:00-18:00",
    "payment:cash": "yes",
    "payment:mastercard": "yes",
    "payment:visa": "yes",
    "phone": "+60 3 2272 1010",
    "start_date": "1991",
    "tourism": "zoo",
    "website": "https://klbirdpark.com/",
    "wikidata": "Q2660049",
    "wikimedia_commons": "Category:Kuala Lumpur Bird Park",
    "wikipedia": "en:Kuala Lumpur Bird Park",
    "zoo": "aviary"
  }
},
{
  "type": "way",
  "id": 446256442,
  "center": {
    "lat": 3.1438675,
    "lon": 101.6976221
  },
  "tags": {
    "addr:city": "Kuala Lumpur",
    "alt_name": "Chinatown",
    "alt_name:en": "Chinatown",
    "alt_name:zh": "唐人街",
    "alt_name:zh-Hans": "唐人街",
    "alt_name:zh-Hant": "唐人街",
    "amenity": "marketplace",
    "landuse": "retail",
    "name": "Jalan Petaling",
    "name:en": "Petaling Street",
    "name:ms": "Jalan Petaling",
    "name:zh": "茨厂街",
    "name:zh-Hans": "茨厂街",
    "name:zh-Hant": "茨廠街",
    "opening_hours": "11:00-24:00",
    "tourism": "attraction",
    "wikidata": "Q3239125",
    "wikimedia_commons": "Category:Petaling Street",
    "wikipedia": "en:Petaling Street"
  }
},
{
  "type": "way",
  "id": 447226883,
  "center": {
    "lat": 3.1640431,
    "lon": 101.5724653
  },
  "tags": {
    "building": "yes",
    "name": "Flipout Trampouline Park",
    "tourism": "theme_park"
  }
},
{
  "type": "way",
  "id": 449713851,
  "center": {
    "lat": 3.2354397,
    "lon": 101.6343457
  },
  "tags": {
    "building": "yes",
    "name": "Forest Research Institute Malaysia Museum",
    "name:en": "Forest Research Institute Malaysia Museum",
    "short_name": "FRIM Museum",
    "tourism": "museum"
  }
},
{
  "type": "way",
  "id": 449714746,
  "center": {
    "lat": 3.2344530,
    "lon": 101.6339454
  },
  "tags": {
    "building": "yes",
    "name": "Insectarium",
    "name:en": "Insectarium",
    "tourism": "museum"
  }
},
{
  "type": "way",
  "id": 471992046,
  "center": {
    "lat": 3.1456933,
    "lon": 101.7086769
  },
  "tags": {
    "amenity": "marketplace",
    "description": "Hawker street and night market",
    "landuse": "retail",
    "name": "Jalan Alor",
    "name:en": "Jalan Alor - Night Market",
    "name:ms": "Jalan Alor",
    "name:zh": "亚罗街",
    "name:zh-Hans": "亚罗街",
    "name:zh-Hant": "亞羅街",
    "opening_hours": "Mo-Su 16:00-02:00",
    "tourism": "attraction",
    "wheelchair": "yes",
    "wikidata": "Q18651495",
    "wikimedia_commons": "Category:Alor Street",
    "wikipedia": "zh:亞羅街"
  }
},
{
  "type": "way",
  "id": 480033934,
  "center": {
    "lat": 3.1378948,
    "lon": 101.6971405
  },
  "tags": {
    "addr:housenumber": "82",
    "addr:street": "Jalan Rotan",
    "building": "commercial",
    "name": "Bangunan Zhongshan",
    "name:en": "Zhongshan Building",
    "name:zh": "雪兰莪中山同乡会大楼",
    "tourism": "attraction"
  }
},
{
  "type": "way",
  "id": 480708779,
  "center": {
    "lat": 3.1484599,
    "lon": 101.6948740
  },
  "tags": {
    "addr:city": "Kuala Lumpur",
    "area": "yes",
    "highway": "pedestrian",
    "name": "Bangunan Sultan Abdul Samad",
    "surface": "brick",
    "tourism": "attraction"
  }
},
{
  "type": "way",
  "id": 480717734,
  "center": {
    "lat": 3.1488366,
    "lon": 101.6957991
  },
  "tags": {
    "addr:city": "Kuala Lumpur",
    "addr:postcode": "50050",
    "addr:street": "Jalan Tun Perak",
    "alt_name:ms": "Masjid Jamek Sultan Abdul Samad",
    "alt_name:ms-Arab": "مسجد جامع سلطان عبد الصمد",
    "amenity": "place_of_worship",
    "denomination": "sunni",
    "landuse": "religious",
    "layer": "1",
    "name": "Masjid Jamek Kuala Lumpur",
    "name:ar": "المسجد الجامع كوالالمبور",
    "name:bn": "জেমক মসজিদ",
    "name:en": "Jamek Mosque",
    "name:fr": "Masjid Jamek",
    "name:ja": "マスジッド・ジャメ",
    "name:ko": "자멕 모스크",
    "name:ms": "Masjid Jamek Kuala Lumpur",
    "name:ms-Arab": "مسجد جامع كوالا لومڤور",
    "name:ta": "ஜாமிஃ பள்ளிவாசல்",
    "name:zh": "吉隆坡占美清真寺",
    "name:zh-Hans": "吉隆坡占美清真寺",
    "name:zh-Hant": "吉隆坡占美清真寺",
    "official_name": "Masjid Jamek Sultan Abdul Samad",
    "religion": "muslim",
    "tourism": "attraction",
    "wikidata": "Q1143296",
    "wikimedia_commons": "Category:Sultan Abdul Samad Jamek Mosque",
    "wikipedia": "en:Jamek Mosque"
  }
},
{
  "type": "way",
  "id": 484263462,
  "center": {
    "lat": 3.1476668,
    "lon": 101.6938250
  },
  "tags": {
    "alt_name": "Cop’s Fountain",
    "amenity": "fountain",
    "lit": "yes",
    "name": "Queen Victoria Fountain",
    "natural": "water",
    "start_date": "1904",
    "tourism": "attraction"
  }
},
{
  "type": "way",
  "id": 537381109,
  "center": {
    "lat": 3.1507471,
    "lon": 101.6943443
  },
  "tags": {
    "amenity": "fountain",
    "name": "Jam Detik",
    "name:en": "Countdown Clock",
    "name:ms": "Jam Detik",
    "short_name": "CDC",
    "tourism": "attraction"
  }
},
{
  "type": "way",
  "id": 572720082,
  "center": {
    "lat": 3.1353248,
    "lon": 101.7132685
  },
  "tags": {
    "alt_name": "Pudu Wai Sek Gai",
    "amenity": "marketplace",
    "description": "Hawker street and market",
    "landuse": "retail",
    "name": "Glutton Street Market",
    "name:en": "Glutton Street Market",
    "name:zh": "半山芭为食街",
    "name:zh-Hans": "半山芭为食街",
    "name:zh-Hant": "半山芭為食街",
    "opening_hours": "Mo-Su 16:30-22:00",
    "tourism": "attraction"
  }
},
{
  "type": "way",
  "id": 604943238,
  "center": {
    "lat": 3.1053976,
    "lon": 101.6503991
  },
  "tags": {
    "building": "yes",
    "name": "Muzium Petaling Jaya",
    "tourism": "museum"
  }
},
{
  "type": "way",
  "id": 659878360,
  "center": {
    "lat": 3.1414518,
    "lon": 101.6897523
  },
  "tags": {
    "addr:city": "Kuala Lumpur",
    "addr:street": "Jalan Lembah",
    "building": "yes",
    "email": "info@iamm.org.my",
    "facebook": "https://www.facebook.com/islamicartsmuseummalaysia/",
    "fee": "yes",
    "name": "Muzium Kesenian Islam Malaysia",
    "name:en": "Islamic Arts Museum Malaysia",
    "name:pl": "Muzeum Sztuki Islamskiej",
    "name:zh": "伊斯兰艺术博物馆",
    "opening_hours": "Mo-Su 10:00-18:00",
    "phone": "+60 3 20927070",
    "short_name": "IAMM",
    "start_date": "1998",
    "tourism": "museum",
    "website": "https://www.iamm.org.my/",
    "wikidata": "Q3330187",
    "wikimedia_commons": "Category:Islamic Arts Museum Malaysia",
    "wikipedia": "en:Islamic Arts Museum Malaysia"
  }
},
{
  "type": "way",
  "id": 765200301,
  "center": {
    "lat": 3.1610114,
    "lon": 101.7082266
  },
  "tags": {
    "alt_name:en": "Saloma Link Bridge",
    "bicycle": "dismount",
    "bridge": "yes",
    "covered": "arcade",
    "foot": "yes",
    "highway": "footway",
    "layer": "2",
    "name": "Pintasan Saloma",
    "name:en": "Saloma Link",
    "opening_hours": "Mo-Sa 05:00-01:00, Su,PH 05:00-00:30",
    "tourism": "attraction",
    "width": "3",
    "wikimedia_commons": "Category:Saloma Link Bridge",
    "wikipedia": "en:Saloma Link"
  }
},
{
  "type": "way",
  "id": 776280273,
  "center": {
    "lat": 3.1434363,
    "lon": 101.6862707
  },
  "tags": {
    "name": "Taman Kancil dan Rusa",
    "name:en": "Mousedeer Garden",
    "name:ms": "Taman Kancil dan Rusa",
    "name:zh": "鹿园",
    "opening_hours": "Mo-Th 10:00-12:00,14:00-18:00,Fr 10:00-12:00,15:00-18:00; PH,Sa-Su 10:00-18:00",
    "tourism": "zoo"
  }
},
{
  "type": "way",
  "id": 776280279,
  "center": {
    "lat": 3.1439607,
    "lon": 101.6875946
  },
  "tags": {
    "access": "yes",
    "attraction": "formal_garden",
    "fee": "no",
    "garden:type": "botanical",
    "leisure": "garden",
    "name": "Taman Orkid",
    "name:en": "Orchid Park",
    "name:ja": "蘭庭園",
    "name:ru": "парк орхидей",
    "name:zh": "木槿花园",
    "opening_hours": "Mo-Su 09:00-18:00",
    "phone": "+60326176000",
    "source:name": "local signboard;survey",
    "tourism": "attraction",
    "wikidata": "Q5926987"
  }
},
{
  "type": "way",
  "id": 776280280,
  "center": {
    "lat": 3.1453347,
    "lon": 101.6862494
  },
  "tags": {
    "attraction": "formal_garden",
    "leisure": "garden",
    "name": "Taman Bunga Raya",
    "name:en": "Hibiscus Park",
    "opening_hours": "Mo-Su 09:00-18:00",
    "source:name": "local signboard;survey",
    "tourism": "attraction"
  }
},
{
  "type": "way",
  "id": 793910990,
  "center": {
    "lat": 3.2354627,
    "lon": 101.6690854
  },
  "tags": {
    "addr:city": "Kuala Lumpur",
    "addr:street": "Jalan 4/3A",
    "amenity": "marketplace",
    "name": "Pasar Borong Kuala Lumpur",
    "name:ms": "Pasar Borong Kuala Lumpur",
    "name:zh": "吉隆坡批发公市",
    "name:zh-Hans": "吉隆坡批发公市",
    "name:zh-Hant": "吉隆坡批發公市",
    "opening_hours": "03:00-09:00",
    "opening_hours:covid19": "off",
    "source": "https://openstreetcam.org/details/2043422/3592",
    "tourism": "attraction"
  }
},
{
  "type": "way",
  "id": 801320516,
  "center": {
    "lat": 3.1416001,
    "lon": 101.6976753
  },
  "tags": {
    "contact:instagram": "https://www.instagram.com/kwaichaihong/",
    "description": "Back alley with murals of Chinese life in the city",
    "facebook": "https://www.facebook.com/kwaichaihong/",
    "landuse": "retail",
    "name": "Kwai Chai Hong",
    "name:en": "Kwai Chai Hong",
    "name:zh": "鬼仔巷",
    "name:zh-Hans": "鬼仔巷",
    "name:zh-Hant": "鬼仔巷",
    "opening_hours": "Mo-Su 09:00-24:00",
    "start_date": "2019",
    "tourism": "attraction",
    "website": "https://www.kwaichaihong.com/",
    "wikidata": "Q93494466",
    "wikimedia_commons": "Category:Kwai Chai Hong"
  }
},
{
  "type": "way",
  "id": 804684605,
  "center": {
    "lat": 3.1455142,
    "lon": 101.6887589
  },
  "tags": {
    "addr:city": "Kuala Lumpur",
    "addr:postcode": "50480",
    "addr:street": "Jalan Chenderasari",
    "alt_name": "KL Butterfly Park",
    "charge": "30MYR",
    "check_date": "2024-12-01",
    "email": "info@klbutterflypark.com",
    "fee": "yes",
    "name": "Taman Rama Rama Kuala Lumpur",
    "name:en": "Kuala Lumpur Butterfly Park",
    "opening_hours": "09:00-18:00",
    "payment:cards": "no",
    "payment:cash": "yes",
    "payment:credit_cards": "no",
    "payment:debit_cards": "no",
    "phone": "+60 326934799",
    "tourism": "zoo",
    "website": "http://www.klbutterflypark.com/",
    "wikidata": "Q6440990",
    "wikimedia_commons": "Category:Kuala Lumpur Butterfly Park",
    "wikipedia": "en:Kuala Lumpur Butterfly Park",
    "zoo": "butterfly"
  }
},
{
  "type": "way",
  "id": 1021001334,
  "center": {
    "lat": 3.1196374,
    "lon": 101.6555320
  },
  "tags": {
    "building": "tree_house",
    "name": "Rumah Pokok Samali",
    "name:en": "Samali Treehouse",
    "operator": "Universiti Malaya",
    "operator:short": "UM",
    "operator:type": "university",
    "operator:wikidata": "Q1142924",
    "tourism": "attraction"
  }
},
{
  "type": "way",
  "id": 1086403294,
  "center": {
    "lat": 3.1419641,
    "lon": 101.6868769
  },
  "tags": {
    "addr:city": "Kuala Lumpur",
    "addr:postcode": "50480",
    "addr:street": "Jalan Perdana",
    "museum": "history",
    "name": "Sri Taman Memorial Tun Abdul Razak",
    "name:ja": "ｽﾘ･ﾀﾏﾝ記念館",
    "opening_hours": "Tu-Fr 09:00-17:00",
    "operator": "Arkib Negara Malaysia",
    "tourism": "museum",
    "wikidata": "Q12697599",
    "wikimedia_commons": "Category:Tun Abdul Razak Memorial, Kuala Lumpur",
    "wikipedia": "ms:Memorial Tun Abdul Razak"
  }
},
{
  "type": "way",
  "id": 1237772915,
  "center": {
    "lat": 3.1613748,
    "lon": 101.7078920
  },
  "tags": {
    "alt_name:en": "Saloma Link Bridge",
    "bicycle": "dismount",
    "bridge": "yes",
    "covered": "arcade",
    "foot": "yes",
    "highway": "footway",
    "layer": "1",
    "name": "Pintasan Saloma",
    "name:en": "Saloma Link",
    "opening_hours": "Mo-Sa 05:00-01:00, Su,PH 05:00-00:30",
    "tourism": "attraction",
    "width": "3",
    "wikimedia_commons": "Category:Saloma Link Bridge",
    "wikipedia": "en:Saloma Link"
  }
},
{
  "type": "way",
  "id": 1266999282,
  "center": {
    "lat": 3.1561296,
    "lon": 101.6909670
  },
  "tags": {
    "description": "It serves as a center housing memorials of Malaysia’s prominent statesmen:\n\nTunku Abdul Rahman Memorial\nTun Hussein Onn Memorial\nNegarawan Memorial\n\nAt this complex, visitors can explore personal collections and archived photographs of Malaysia’s past lea",
    "landuse": "civic_admin",
    "name": "Kompleks Arkib Perdana Menteri Dan Arkib Negarawan",
    "name:en": "Prime Ministers’ Archive Complex and Statesmen Archive",
    "opening_hours": "09:00-17:00; Fr 09:00–12:00 15:00–17:00; Mo off",
    "tourism": "museum",
    "website": "https://www.arkib.gov.my/"
  }
},
{
  "type": "way",
  "id": 1427557823,
  "center": {
    "lat": 3.1485181,
    "lon": 101.6954538
  },
  "tags": {
    "area": "yes",
    "name": "Blue Corridor",
    "name:en": "Blue Corridor",
    "name:ms": "Koridor Biru",
    "operator": "Dewan Bandaraya Kuala Lumpur",
    "tourism": "attraction"
  }
},
{
  "type": "relation",
  "id": 17633468,
  "center": {
    "lat": 3.2106579,
    "lon": 101.7591114
  },
  "tags": {
    "access": "yes",
    "addr:city": "Hulu Kelang",
    "addr:postcode": "68000",
    "addr:street": "Zoo Negara",
    "is_in": "Zoo Negara, Hulu Kelang, Selangor, Malaysia",
    "is_in:country": "Malaysia",
    "is_in:state": "Selangor",
    "leisure": "park",
    "name": "Zoo Negara",
    "name:en": "National Zoo",
    "name:ko": "국립동물원",
    "name:ms": "Zoo Negara",
    "name:ta": "மலேசிய தேசிய விலங்குக் காட்சி சாலை",
    "name:zh": "国家动物园",
    "name:zh-Hans": "国家动物园",
    "name:zh-Hant": "國家動物園",
    "smoking": "no",
    "tourism": "zoo",
    "type": "multipolygon",
    "wheelchair": "yes",
    "wikidata": "Q1142942",
    "wikimedia_commons": "Category:Zoo Negara",
    "wikipedia": "en:National Zoo of Malaysia"
  }
},
{
  "type": "relation",
  "id": 19573700,
  "center": {
    "lat": 3.1485181,
    "lon": 101.6954538
  },
  "tags": {
    "area": "yes",
    "name": "River of Life site",
    "tourism": "attraction",
    "type": "site"
  }
}

  ]
}
