{
  "version": 0.6,
  "generator": "Overpass API 0.7.62.11 87bfad18",
  "osm3s": {
    "timestamp_osm_base": "2026-04-01T09:34:31Z",
    "copyright": "The data included in this document is from www.openstreetmap.org. The data is made available under ODbL."
  },
  "elements": [

{
  "type": "node",
  "id": 257066461,
  "lat": 13.7215136,
  "lon": 100.5168850,
  "tags": {
    "addr:city": "แขวงสุริยวงศ์",
    "addr:housenumber": "1055 State Tower",
    "addr:postcode": "10500",
    "addr:street": "ถนนสีลม",
    "ele": "21",
    "name": "lebua at State Tower",
    "operator": "lebua Hotels and Resorts",
    "phone": "+6626249999",
    "tourism": "hotel",
    "website": "https://www.lebua.com/state-tower",
    "wheelchair": "limited",
    "wikidata": "Q22032271",
    "wikipedia": "en:Lebua at State Tower"
  }
},
{
  "type": "node",
  "id": 280176686,
  "lat": 13.7264888,
  "lon": 100.5634200,
  "tags": {
    "created_by": "Potlatch 0.10",
    "name": "House By The Pond",
    "tourism": "hotel"
  }
},
{
  "type": "node",
  "id": 317050266,
  "lat": 13.7462462,
  "lon": 100.6085348,
  "tags": {
    "ele": "2",
    "name": "Patra Place",
    "tourism": "hotel"
  }
},
{
  "type": "node",
  "id": 317957633,
  "lat": 13.7571598,
  "lon": 100.5218859,
  "tags": {
    "addr:housenumber": "1",
    "addr:province": "กรุงเทพมหานคร",
    "addr:street": "Petchburi Soi 1",
    "comment": "usually 850B a night including wifi and breakfast",
    "name": "Bangkok City Suite",
    "tourism": "hotel",
    "wifi": "free"
  }
},
{
  "type": "node",
  "id": 476307466,
  "lat": 13.7176464,
  "lon": 100.5254721,
  "tags": {
    "name": "Heritage Hotel",
    "tourism": "hotel"
  }
},
{
  "type": "node",
  "id": 481996223,
  "lat": 13.7070248,
  "lon": 100.5358115,
  "tags": {
    "addr:country": "TH",
    "addr:housenumber": "1633/2",
    "addr:postcode": "10120",
    "addr:province": "กรุงเทพมหานคร",
    "addr:street": "Chan Soi 2, Chan Rd",
    "name": "Forum Park Hotel",
    "tourism": "hotel"
  }
},
{
  "type": "node",
  "id": 621287381,
  "lat": 13.7263613,
  "lon": 100.5373806,
  "tags": {
    "name": "Baan Sala Daeng",
    "tourism": "hotel"
  }
},
{
  "type": "node",
  "id": 677534965,
  "lat": 13.7591917,
  "lon": 100.4964315,
  "tags": {
    "name": "D&D Inn",
    "tourism": "hotel",
    "wheelchair": "yes"
  }
},
{
  "type": "node",
  "id": 776037975,
  "lat": 13.7383661,
  "lon": 100.5561563,
  "tags": {
    "name": "Stable Lodge",
    "name:en": "Stable Lodge",
    "tourism": "hotel"
  }
},
{
  "type": "node",
  "id": 776037977,
  "lat": 13.7410823,
  "lon": 100.5530873,
  "tags": {
    "addr:housenumber": "5/5",
    "addr:postcode": "10110",
    "addr:street": "Soi Sukhumvit 4",
    "name": "Dynasty Inn Bangkok Hotel",
    "name:it": "Dynasty Inn",
    "tourism": "hotel"
  }
},
{
  "type": "node",
  "id": 776746014,
  "lat": 13.7374075,
  "lon": 100.5557504,
  "tags": {
    "name": "PS Guesthouse",
    "tourism": "hotel"
  }
},
{
  "type": "node",
  "id": 776746274,
  "lat": 13.7601131,
  "lon": 100.5027895,
  "tags": {
    "addr:housenumber": "1 6",
    "addr:postcode": "10200",
    "addr:province": "กรุงเทพมหานคร",
    "addr:street": "Prachathipatai Rd, Khwaeng Ban Phan Thom, Khet Phra Nakhon, Bangkok 10200, Thaïlande",
    "amenity": "restaurant",
    "cuisine": "thai",
    "name": "The Family",
    "phone": "+66958960395",
    "tourism": "hotel",
    "website": "https://www.facebook.com/thefamilybkk"
  }
},
{
  "type": "node",
  "id": 951517623,
  "lat": 13.7554701,
  "lon": 100.5368263,
  "tags": {
    "brand": "Best Western",
    "brand:wikidata": "Q830334",
    "name": "Best Western Mayfair Suites",
    "note": "Locn to be verified.",
    "tourism": "hotel"
  }
},
{
  "type": "node",
  "id": 1142880102,
  "lat": 13.7212127,
  "lon": 100.5154612,
  "tags": {
    "name": "Bossotel Inn",
    "tourism": "hotel",
    "website": "https://www.bossotelinn.com/"
  }
},
{
  "type": "node",
  "id": 1196935417,
  "lat": 13.7150996,
  "lon": 100.5146901,
  "tags": {
    "alt_name": "7-11",
    "brand": "7-Eleven",
    "brand:wikidata": "Q259340",
    "name": "7-Eleven",
    "name:en": "7-Eleven",
    "name:th": "The house of Phraya Jasaen",
    "operator": "Seven & I Holdings",
    "shop": "convenience",
    "tourism": "hotel",
    "website": "http://www.7eleven.co.th/"
  }
},
{
  "type": "node",
  "id": 1632794902,
  "lat": 13.7648820,
  "lon": 100.5027294,
  "tags": {
    "name": "Swana Bangkok",
    "tourism": "hotel",
    "website": "http://www.swanabangkok.com/"
  }
},
{
  "type": "node",
  "id": 1711215674,
  "lat": 13.8299422,
  "lon": 100.5638276,
  "tags": {
    "name": "Northgate Ratchayothin",
    "phone": "+66 2 9397949",
    "tourism": "hotel",
    "website": "https://www.northgatebangkok.com/"
  }
},
{
  "type": "node",
  "id": 1720469683,
  "lat": 13.7328957,
  "lon": 100.5628539,
  "tags": {
    "brand": "Park Plaza",
    "brand:wikidata": "Q2052550",
    "check_date": "2024-04-24",
    "name": "Park Plaza Hotels",
    "name:th": "โรงแรมพาร์ค พลาซ่า",
    "tourism": "hotel"
  }
},
{
  "type": "node",
  "id": 1720469685,
  "lat": 13.7329973,
  "lon": 100.5626018,
  "tags": {
    "name": "Oakwood Apartments Trilliant",
    "tourism": "hotel"
  }
},
{
  "type": "node",
  "id": 1725736667,
  "lat": 13.7456331,
  "lon": 100.5195150,
  "tags": {
    "name": "Twin Towers Hotel",
    "tourism": "hotel"
  }
},
{
  "type": "node",
  "id": 1801787030,
  "lat": 13.7425054,
  "lon": 100.5541598,
  "tags": {
    "name": "Fortuna",
    "tourism": "hotel"
  }
},
{
  "type": "node",
  "id": 1868784630,
  "lat": 13.7199971,
  "lon": 100.5150385,
  "tags": {
    "name": "Center Point Silom",
    "note": "On top of Robinson Shopping Mall",
    "tourism": "hotel"
  }
},
{
  "type": "node",
  "id": 1887121773,
  "lat": 13.7448277,
  "lon": 100.4912739,
  "tags": {
    "addr:postcode": "10200",
    "name": "Arun Residence",
    "tourism": "hotel"
  }
},
{
  "type": "node",
  "id": 2084099084,
  "lat": 13.7381860,
  "lon": 100.5606839,
  "tags": {
    "name": "Grande Centre Point Terminal 21",
    "name:en": "Terminal 21 Hotel",
    "name:es": "Hotel Gran center Point - Terminal 21",
    "name:ja": "그랜드 센터 포인트 호텔 - 터미널21",
    "name:ko": "터미널 21",
    "name:zh": "航站21 飯店",
    "tourism": "hotel",
    "website": "https://www.terminal21.co.th/"
  }
},
{
  "type": "node",
  "id": 2102550438,
  "lat": 13.7469266,
  "lon": 100.5698932,
  "tags": {
    "addr:housenumber": "1880",
    "addr:postcode": "10310",
    "addr:province": "กรุงเทพมหานคร",
    "addr:street": "New Petchburi Road",
    "air_conditioning": "yes",
    "fax": "+66 (0) 2718 2002",
    "name": "AVANI Atrium Bangkok",
    "phone": "+66 (0) 2718 2000-1",
    "rooms": "568",
    "smoking": "outside",
    "tourism": "hotel"
  }
},
{
  "type": "node",
  "id": 2109058415,
  "lat": 13.7193713,
  "lon": 100.5669886,
  "tags": {
    "tourism": "hotel"
  }
},
{
  "type": "node",
  "id": 2122149474,
  "lat": 13.7178473,
  "lon": 100.5164637,
  "tags": {
    "name": "Oakwood Hotel & Residence Bangkok",
    "tourism": "hotel"
  }
},
{
  "type": "node",
  "id": 2310928058,
  "lat": 13.7521872,
  "lon": 100.5300557,
  "tags": {
    "addr:country": "TH",
    "addr:housenumber": "359/1",
    "addr:province": "กรุงเทพมหานคร",
    "addr:street": "Soi Phayanak, Phetchaburi Rd",
    "name": "Siam Swana",
    "name:zh": "暹罗思瓦纳酒店",
    "note": "Locn to be verified.",
    "phone": "+662 6110191",
    "tourism": "hotel"
  }
},
{
  "type": "node",
  "id": 2318670330,
  "lat": 13.7184510,
  "lon": 100.5267100,
  "tags": {
    "name": "Marvin Suites",
    "tourism": "hotel",
    "wheelchair": "no"
  }
},
{
  "type": "node",
  "id": 2340521136,
  "lat": 13.7528942,
  "lon": 100.5396364,
  "tags": {
    "email": "baiyokesuite@baiyoke.co.th",
    "fax": "+66 2254 5553",
    "name": "Baiyoke Suite Hotel",
    "phone": "+66 2255 7755",
    "stars": "4",
    "tourism": "hotel",
    "website": "https://baiyokesuite.baiyokehotel.com/"
  }
},
{
  "type": "node",
  "id": 2365836782,
  "lat": 13.7523283,
  "lon": 100.5265345,
  "tags": {
    "name": "Diamond City Hotel",
    "tourism": "hotel"
  }
},
{
  "type": "node",
  "id": 2391364879,
  "lat": 13.7574020,
  "lon": 100.5345009,
  "tags": {
    "name": "Florida Hotel",
    "stars": "2",
    "tourism": "hotel"
  }
},
{
  "type": "node",
  "id": 2391364885,
  "lat": 13.7301766,
  "lon": 100.5698459,
  "tags": {
    "addr:housenumber": "670",
    "addr:street": "ถนนสุขุมวิท",
    "email": "reservation@hotel24innbkk.com",
    "internet_access": "wlan",
    "internet_access:fee": "no",
    "name": "24 Inn",
    "phone": "+6622586815",
    "tourism": "hotel",
    "website": "https://www.hotel24innbkk.com/"
  }
},
{
  "type": "node",
  "id": 2398833132,
  "lat": 13.7594760,
  "lon": 100.4964882,
  "tags": {
    "amenity": "restaurant",
    "name": "Dang Derm",
    "name:en": "Himalayan Kitchen",
    "tourism": "hotel"
  }
},
{
  "type": "node",
  "id": 2403979144,
  "lat": 13.7603473,
  "lon": 100.4983056,
  "tags": {
    "addr:housenumber": "111/1-3",
    "addr:postcode": "10200",
    "addr:province": "กรุงเทพมหานคร",
    "addr:street": "Tanee road, Taladyod, Panakorn",
    "name": "Thai Cozy House",
    "phone": "+66 2 629 5870",
    "tourism": "hotel",
    "website": "https://www.thaicozyhousekhaosan.com/"
  }
},
{
  "type": "node",
  "id": 2403979148,
  "lat": 13.7606040,
  "lon": 100.4979040,
  "tags": {
    "addr:housenumber": "95-97",
    "addr:postcode": "10200",
    "addr:province": "กรุงเทพมหานคร",
    "addr:street": "Tanee Rd",
    "contact:email": "panee_house@yahoo.co.th",
    "internet_access": "wlan",
    "name": "Pannee House",
    "phone": "66262900956",
    "tourism": "hotel",
    "website": "http://www.paneelodge.com"
  }
},
{
  "type": "node",
  "id": 2404601548,
  "lat": 13.7590117,
  "lon": 100.4955260,
  "tags": {
    "name": "Four Sons Place",
    "tourism": "hotel",
    "wheelchair": "yes"
  }
},
{
  "type": "node",
  "id": 2404676300,
  "lat": 13.7592320,
  "lon": 100.4982556,
  "tags": {
    "tourism": "hotel",
    "wheelchair": "no"
  }
},
{
  "type": "node",
  "id": 2408313668,
  "lat": 13.7303949,
  "lon": 100.5304268,
  "tags": {
    "name": "Rose Hotel",
    "tourism": "hotel"
  }
},
{
  "type": "node",
  "id": 2408322605,
  "lat": 13.7273698,
  "lon": 100.5366210,
  "tags": {
    "name": "ดิ อินน์ ศาลาแดง",
    "name:en": "The Inn Saladaeng",
    "name:th": "ดิ อินน์ ศาลาแดง",
    "tourism": "hotel"
  }
},
{
  "type": "node",
  "id": 2408323306,
  "lat": 13.7259040,
  "lon": 100.5342365,
  "tags": {
    "name": "The Swiss Lodge",
    "tourism": "hotel"
  }
},
{
  "type": "node",
  "id": 2409389659,
  "lat": 13.7261382,
  "lon": 100.5181001,
  "tags": {
    "name": "Manohra",
    "tourism": "hotel"
  }
},
{
  "type": "node",
  "id": 2409440024,
  "lat": 13.7283342,
  "lon": 100.5143938,
  "tags": {
    "name": "P&R Residence",
    "tourism": "hotel"
  }
},
{
  "type": "node",
  "id": 2422426052,
  "lat": 13.7537007,
  "lon": 100.4864322,
  "tags": {
    "name": "Ibrik Resort by the River",
    "tourism": "hotel"
  }
},
{
  "type": "node",
  "id": 2428628559,
  "lat": 13.7594440,
  "lon": 100.4986726,
  "tags": {
    "name": "Pannee Guesthouse",
    "tourism": "hotel",
    "wheelchair": "no"
  }
},
{
  "type": "node",
  "id": 2428799936,
  "lat": 13.7644516,
  "lon": 100.4994273,
  "tags": {
    "addr:street": "113,117 Samsen road , phranakorn district Bangkok 10200",
    "air_conditioning": "yes",
    "building": "yes",
    "internet_access": "wlan",
    "internet_access:fee": "no",
    "name": "Tara Place",
    "name:en": "Tara place",
    "phone": "+66 2 627 1001",
    "smoking": "isolated",
    "swimming_pool": "no",
    "tourism": "hotel",
    "website": "https://www.taraplacebangkok.com/",
    "wheelchair": "yes"
  }
},
{
  "type": "node",
  "id": 2432999105,
  "lat": 13.7602280,
  "lon": 100.4967364,
  "tags": {
    "name": "Ben's House",
    "tourism": "hotel"
  }
},
{
  "type": "node",
  "id": 2484887626,
  "lat": 13.7519311,
  "lon": 100.5370430,
  "tags": {
    "addr:housename": "Pakdee bed and breakfast",
    "addr:postcode": "10400",
    "addr:province": "กรุงเทพมหานคร",
    "addr:street": "Phetchaburi 15",
    "contact:facebook": "https://www.facebook.com/Pakdee-Bed-and-Breakfast-623965297624026/",
    "facebook": "https://www.facebook.com/Pakdee-Bed-and-Breakfast-623965297624026/",
    "name": "พักดี ประตูน้ำ เบดแอนด์เบรคฟาสต์",
    "name:en": "Pakdee Bed and Breakfast",
    "name:th": "พักดี ประตูน้ำ เบดแอนด์เบรคฟาสต์",
    "phone": "+6626537611",
    "tourism": "hotel",
    "website": "http://www.pak-d.com/"
  }
},
{
  "type": "node",
  "id": 2527522642,
  "lat": 13.7396719,
  "lon": 100.5558383,
  "tags": {
    "addr:housename": "Royal Express",
    "addr:housenumber": "4/3",
    "addr:postcode": "10110",
    "addr:province": "กรุงเทพมหานคร",
    "addr:street": "Sukhumvit Soi 8",
    "name": "Royal Express",
    "tourism": "hotel",
    "website": "http://www.royalexpressinn.com/"
  }
},
{
  "type": "node",
  "id": 2527523786,
  "lat": 13.7399988,
  "lon": 100.5558556,
  "tags": {
    "addr:housename": "on8 Sukhumvit",
    "addr:housenumber": "162",
    "addr:postcode": "10110",
    "addr:province": "กรุงเทพมหานคร",
    "addr:street": "ถนนสุขุมวิท",
    "name": "On8 Sukhumvit",
    "tourism": "hotel"
  }
},
{
  "type": "node",
  "id": 2556677192,
  "lat": 13.7295574,
  "lon": 100.5719924,
  "tags": {
    "addr:postcode": "10110",
    "addr:province": "กรุงเทพมหานคร",
    "addr:street": "Sukhumvit 41",
    "brand": "iCheck Inn",
    "internet_access": "wlan",
    "name": "iCheck Inn Regency Sukhumvit",
    "operator": "Aspira",
    "rooms": "65",
    "smoking": "outside",
    "tourism": "hotel"
  }
},
{
  "type": "node",
  "id": 2556677371,
  "lat": 13.7295136,
  "lon": 100.5724061,
  "tags": {
    "addr:postcode": "10110",
    "addr:province": "กรุงเทพมหานคร",
    "name": "41 Suite Bangkok Hotel",
    "tourism": "hotel"
  }
},
{
  "type": "node",
  "id": 2614630601,
  "lat": 13.7239803,
  "lon": 100.5220597,
  "tags": {
    "name": "Furama Hotel",
    "tourism": "hotel"
  }
},
{
  "type": "node",
  "id": 2692392034,
  "lat": 13.7192705,
  "lon": 100.5175578,
  "tags": {
    "addr:housenumber": "28/5",
    "addr:postcode": "10500",
    "addr:province": "กรุงเทพมหานคร",
    "addr:street": "Charoen Wien Road",
    "name": "Pas Cher Hotel",
    "phone": "+6626306401",
    "tourism": "hotel",
    "website": "https://www.pascherhoteldebangkok.com/"
  }
},
{
  "type": "node",
  "id": 2753744885,
  "lat": 13.7397107,
  "lon": 100.5112057,
  "tags": {
    "addr:housenumber": "479-481",
    "addr:postcode": "10100",
    "addr:province": "กรุงเทพมหานคร",
    "addr:street": "Yaowaraj Road",
    "brand": "Burasari Hotels",
    "internet_access": "wlan",
    "name": "Shanghai Mansion Bangkok",
    "operator": "Burasari Hotels",
    "smoking": "outside",
    "tourism": "hotel",
    "website": "https://www.shanghaimansion.com"
  }
},
{
  "type": "node",
  "id": 2768111339,
  "lat": 13.7544598,
  "lon": 100.5393412,
  "tags": {
    "addr:housenumber": "88/19",
    "addr:postcode": "10400",
    "addr:province": "กรุงเทพมหานคร",
    "addr:street": "Ratchaprapop 3",
    "alt_name": "Citin Pratunam Hotel Bangkok by Compass Hospitality",
    "name": "Citin Pratunam",
    "tourism": "hotel"
  }
},
{
  "type": "node",
  "id": 2972694737,
  "lat": 13.7374802,
  "lon": 100.5093733,
  "tags": {
    "addr:housenumber": "550",
    "addr:postcode": "10100",
    "addr:province": "กรุงเทพมหานคร",
    "addr:street": "Vanich 1",
    "name": "Shadowinn Hotel",
    "tourism": "hotel"
  }
},
{
  "type": "node",
  "id": 2994444617,
  "lat": 13.7095294,
  "lon": 100.5421593,
  "tags": {
    "addr:housenumber": "88/2",
    "addr:street": "Nang Lychee Rd.",
    "name": "Rio Residence",
    "phone": "+66 (0) 2 287 0041-9",
    "tourism": "hotel",
    "website": "http://rioresidencebangkok.com"
  }
},
{
  "type": "node",
  "id": 3083236050,
  "lat": 13.7291218,
  "lon": 100.5302892,
  "tags": {
    "name": "Tarntawan Place",
    "tourism": "hotel"
  }
},
{
  "type": "node",
  "id": 3096836184,
  "lat": 13.7402766,
  "lon": 100.5104172,
  "tags": {
    "name": "โรงแรม บรอดเวย์",
    "name:en": "Road Way Hotel",
    "name:th": "โรงแรม บรอดเวย์",
    "tourism": "hotel"
  }
},
{
  "type": "node",
  "id": 3096836188,
  "lat": 13.7380641,
  "lon": 100.5171257,
  "tags": {
    "name": "Station Hotel",
    "source": "survey",
    "source:date": "2016-07-29",
    "stars": "0",
    "tourism": "hotel"
  }
},
{
  "type": "node",
  "id": 3096873601,
  "lat": 13.7473120,
  "lon": 100.5034850,
  "tags": {
    "name": "Miramar Hotel",
    "tourism": "hotel"
  }
},
{
  "type": "node",
  "id": 3133292409,
  "lat": 13.7562403,
  "lon": 100.5006133,
  "tags": {
    "name": "Baan Noppawong",
    "phone": "+66 2 224 1047",
    "tourism": "hotel"
  }
},
{
  "type": "node",
  "id": 3146871952,
  "lat": 13.7218471,
  "lon": 100.5170661,
  "tags": {
    "ele": "51",
    "name": "Tower Club at lebua",
    "phone": "+6626249555",
    "tourism": "hotel",
    "website": "https://www.lebua.com/"
  }
},
{
  "type": "node",
  "id": 3354527925,
  "lat": 13.7216646,
  "lon": 100.5828807,
  "tags": {
    "addr:housenumber": "1221",
    "addr:street": "สุขุมวิท 61",
    "alt_name": "Lodge 61 Bed & Breakfast Hotel",
    "name": "ลอดจ์ 61",
    "name:en": "Lodge 61",
    "name:th": "ลอดจ์ 61",
    "tourism": "hotel"
  }
},
{
  "type": "node",
  "id": 3401563438,
  "lat": 13.7464694,
  "lon": 100.5507827,
  "tags": {
    "email": "bhplace@hotmail.com",
    "internet_access": "wlan",
    "name": "BH Place",
    "opening_hours": "24/7",
    "phone": "+66 2 2551942",
    "tourism": "hotel",
    "website": "https://www.bhplace.com/"
  }
},
{
  "type": "node",
  "id": 3412787284,
  "lat": 13.7233007,
  "lon": 100.5805460,
  "tags": {
    "addr:housenumber": "2",
    "addr:postcode": "10110",
    "addr:province": "กรุงเทพมหานคร",
    "addr:street": "Soi Sukhumvit 57",
    "brand": "Marriott Executive Apartments",
    "brand:wikidata": "Q72636824",
    "building:levels": "8",
    "name": "Marriott Executive Apartments Bangkok, Sukhumvit Thonglor",
    "phone": "+66 2 7970000",
    "tourism": "hotel",
    "website": "https://www.marriott.com/hotels/travel/bkkbp-marriott-executive-apartments-bangkok-sukhumvit-thonglor/"
  }
},
{
  "type": "node",
  "id": 3413459106,
  "lat": 13.7372038,
  "lon": 100.5171192,
  "tags": {
    "addr:housenumber": "326/23-25",
    "addr:postcode": "10500",
    "addr:province": "กรุงเทพมหานคร",
    "addr:street": "Rama 4 Rd",
    "name": "S.K.House Maha Nakhon",
    "phone": "+66 2 639 1400",
    "smoking": "no",
    "tourism": "hotel"
  }
},
{
  "type": "node",
  "id": 3447059865,
  "lat": 13.7398151,
  "lon": 100.5573649,
  "tags": {
    "name": "Miami Hotel",
    "tourism": "hotel"
  }
},
{
  "type": "node",
  "id": 3455634367,
  "lat": 13.7345806,
  "lon": 100.5658464,
  "tags": {
    "name": "Wow Bangkok",
    "tourism": "hotel"
  }
},
{
  "type": "node",
  "id": 3468340643,
  "lat": 13.7455625,
  "lon": 100.5559920,
  "tags": {
    "name": "Sun City Hotel",
    "tourism": "hotel"
  }
},
{
  "type": "node",
  "id": 3471421971,
  "lat": 13.7292354,
  "lon": 100.5297796,
  "tags": {
    "name": "Glitz",
    "tourism": "hotel"
  }
},
{
  "type": "node",
  "id": 3471478032,
  "lat": 13.7300614,
  "lon": 100.5331136,
  "tags": {
    "name": "Suriwongse",
    "tourism": "hotel"
  }
},
{
  "type": "node",
  "id": 3472782145,
  "lat": 13.7300704,
  "lon": 100.5694083,
  "tags": {
    "name": "BKK Home 24",
    "tourism": "hotel"
  }
},
{
  "type": "node",
  "id": 3476117953,
  "lat": 13.7341923,
  "lon": 100.5650363,
  "tags": {
    "name": "Crown Hotel",
    "tourism": "hotel"
  }
},
{
  "type": "node",
  "id": 3488652933,
  "lat": 13.7183468,
  "lon": 100.5168361,
  "tags": {
    "name": "sathornterrace",
    "tourism": "hotel"
  }
},
{
  "type": "node",
  "id": 3660139258,
  "lat": 13.8035447,
  "lon": 100.5563550,
  "tags": {
    "name": "G9 Bangkok",
    "tourism": "hotel"
  }
},
{
  "type": "node",
  "id": 3705421625,
  "lat": 13.7426085,
  "lon": 100.5476474,
  "tags": {
    "name": "The Okura Prestige Bangkok Hotel",
    "phone": "+66 2 6879000",
    "stars": "5",
    "tourism": "hotel",
    "website": "https://www.okurabangkok.com/",
    "wheelchair": "yes",
    "wikidata": "Q11293150"
  }
},
{
  "type": "node",
  "id": 3705623080,
  "lat": 13.8058524,
  "lon": 100.5112712,
  "tags": {
    "name": "P-Park Residence",
    "tourism": "hotel",
    "website": "http://www.p-parkresidence.com/"
  }
},
{
  "type": "node",
  "id": 3718445433,
  "lat": 13.7738816,
  "lon": 100.5707107,
  "tags": {
    "name": "Crystal Resort",
    "tourism": "hotel"
  }
},
{
  "type": "node",
  "id": 3718445436,
  "lat": 13.7740989,
  "lon": 100.5698709,
  "tags": {
    "name": "Klangkrung Resort",
    "tourism": "hotel"
  }
},
{
  "type": "node",
  "id": 3718445438,
  "lat": 13.7789938,
  "lon": 100.5758860,
  "tags": {
    "email": "gso@my.co.th",
    "internet_access": "wlan",
    "name": "My Hotel Ratchada CMYK",
    "phone": "+6626928899",
    "tourism": "hotel",
    "website": "https://www.myhotelratchada.com/"
  }
},
{
  "type": "node",
  "id": 3718445440,
  "lat": 13.7738019,
  "lon": 100.5709810,
  "tags": {
    "name": "Ocean Hotel Resort & Spa",
    "tourism": "hotel"
  }
},
{
  "type": "node",
  "id": 3718445441,
  "lat": 13.7789757,
  "lon": 100.5763105,
  "tags": {
    "air_conditioning": "yes",
    "internet_access": "wlan",
    "internet_access:fee": "no",
    "name": "Amaranta hotel",
    "stars": "4",
    "swimming_pool": "yes",
    "tourism": "hotel"
  }
},
{
  "type": "node",
  "id": 3724152158,
  "lat": 13.7782766,
  "lon": 100.5722065,
  "tags": {
    "name": "The Palazzo",
    "tourism": "hotel"
  }
},
{
  "type": "node",
  "id": 3744331157,
  "lat": 13.7449221,
  "lon": 100.5581581,
  "tags": {
    "addr:housenumber": "34",
    "addr:postcode": "10110",
    "addr:province": "กรุงเทพมหานคร",
    "addr:street": "ถนนสุขุมวิท ซอย13",
    "brand": "Compass Hospitality",
    "email": "enquiry@citichichotel.com",
    "name": "Citichic Sukhumvit 13 Bangkok",
    "phone": "+66 (2) 342 3888",
    "tourism": "hotel",
    "website": "https://www.citichichotel.com/"
  }
},
{
  "type": "node",
  "id": 3744331159,
  "lat": 13.8597640,
  "lon": 100.5281829,
  "tags": {
    "name": "Regent Hotel",
    "tourism": "hotel"
  }
},
{
  "type": "node",
  "id": 3800639072,
  "lat": 13.8317206,
  "lon": 100.5669720,
  "tags": {
    "name": "Pannapat Service Apartments",
    "tourism": "hotel"
  }
},
{
  "type": "node",
  "id": 3858706147,
  "lat": 13.7485588,
  "lon": 100.5412921,
  "tags": {
    "name": "Bed@Town",
    "tourism": "hotel"
  }
},
{
  "type": "node",
  "id": 3858706257,
  "lat": 13.7495822,
  "lon": 100.5406831,
  "tags": {
    "addr:housenumber": "220",
    "addr:postcode": "10400",
    "addr:street": "ถนนเพชรบุรี",
    "brand": "Novotel",
    "brand:wikidata": "Q420545",
    "name": "Novotel Bangkok Platinum Pratunam",
    "tourism": "hotel",
    "website": "https://novotelbangkokplatinum.com/"
  }
},
{
  "type": "node",
  "id": 3860194626,
  "lat": 13.7416266,
  "lon": 100.5542638,
  "tags": {
    "name": "City Lodge",
    "tourism": "hotel"
  }
},
{
  "type": "node",
  "id": 3860194628,
  "lat": 13.7390020,
  "lon": 100.5579797,
  "tags": {
    "name": "Ruamchitt Plaza Hotel",
    "name:en": "Thermae",
    "tourism": "hotel"
  }
},
{
  "type": "node",
  "id": 3860313772,
  "lat": 13.7402408,
  "lon": 100.5566599,
  "tags": {
    "name": "Bangkok Inn",
    "tourism": "hotel"
  }
},
{
  "type": "node",
  "id": 3860313775,
  "lat": 13.7408677,
  "lon": 100.5565850,
  "tags": {
    "addr:housenumber": "155/25-29",
    "addr:postcode": "10110",
    "addr:province": "กรุงเทพมหานคร",
    "addr:street": "Sukhumvit soi 11",
    "name": "Double One",
    "operator": "Aspira",
    "smoking": "no",
    "tourism": "hotel"
  }
},
{
  "type": "node",
  "id": 3860313777,
  "lat": 13.7410058,
  "lon": 100.5564202,
  "tags": {
    "name": "Eleven Avenue",
    "tourism": "hotel"
  }
},
{
  "type": "node",
  "id": 3860313781,
  "lat": 13.7405781,
  "lon": 100.5567070,
  "tags": {
    "alt_name": "I check inn Nana",
    "name": "Studio Nana",
    "tourism": "hotel",
    "website": "https://www.icheckinn.com/"
  }
},
{
  "type": "node",
  "id": 3877515343,
  "lat": 13.7188724,
  "lon": 100.5176103,
  "tags": {
    "email": "info@grandsathorn.com",
    "fax": "+66 (0) 2632 2095",
    "internet_access": "wlan",
    "internet_access:fee": "no",
    "name": "Grand Sathorn",
    "phone": "+66 (0) 2630 7006",
    "tourism": "hotel",
    "website": "https://www.thegrandsathorn.com/contact.html"
  }
},
{
  "type": "node",
  "id": 3877687709,
  "lat": 13.7354693,
  "lon": 100.5605705,
  "tags": {
    "internet_access": "wlan",
    "internet_access:fee": "no",
    "name": "Citypoint Hotel",
    "tourism": "hotel"
  }
},
{
  "type": "node",
  "id": 3904123582,
  "lat": 13.7571580,
  "lon": 100.5027219,
  "tags": {
    "name": "Ratchadamnoen Residence",
    "tourism": "hotel"
  }
},
{
  "type": "node",
  "id": 3904124019,
  "lat": 13.7559848,
  "lon": 100.5017873,
  "tags": {
    "amenity": "restaurant",
    "name": "Baan Dinso",
    "tourism": "hotel"
  }
},
{
  "type": "node",
  "id": 3904124024,
  "lat": 13.7571217,
  "lon": 100.5028917,
  "tags": {
    "name": "Siamese Views Lodge",
    "tourism": "hotel"
  }
},
{
  "type": "node",
  "id": 3904124025,
  "lat": 13.7570851,
  "lon": 100.5033118,
  "tags": {
    "name": "Sourire @ Rattanakosin Island",
    "tourism": "hotel"
  }
},
{
  "type": "node",
  "id": 3910304492,
  "lat": 13.7035206,
  "lon": 100.5940945,
  "tags": {
    "name": "S50",
    "tourism": "hotel"
  }
},
{
  "type": "node",
  "id": 3912745796,
  "lat": 13.7549177,
  "lon": 100.5267272,
  "tags": {
    "name": "Cacha Hotel",
    "tourism": "hotel"
  }
},
{
  "type": "node",
  "id": 3912747542,
  "lat": 13.7525894,
  "lon": 100.5496074,
  "tags": {
    "name": "Oasis Hotel",
    "tourism": "hotel"
  }
},
{
  "type": "node",
  "id": 3925242295,
  "lat": 13.7909949,
  "lon": 100.5460628,
  "tags": {
    "name": "Liberty Hotel",
    "tourism": "hotel"
  }
},
{
  "type": "node",
  "id": 3951297886,
  "lat": 13.7854930,
  "lon": 100.5709112,
  "tags": {
    "addr:province": "กรุงเทพมหานคร",
    "name": "Ratchada 17 Place",
    "tourism": "hotel"
  }
},
{
  "type": "node",
  "id": 3996669397,
  "lat": 13.7389509,
  "lon": 100.5551222,
  "tags": {
    "addr:province": "กรุงเทพมหานคร",
    "addr:street": "Sukhumvit Soi 6",
    "name": "Orchid Place",
    "tourism": "hotel"
  }
},
{
  "type": "node",
  "id": 3997532757,
  "lat": 13.7352050,
  "lon": 100.5626589,
  "tags": {
    "addr:housenumber": "390/20",
    "addr:postcode": "10110",
    "addr:province": "กรุงเทพมหานคร",
    "addr:street": "Sukhumvit soi 18",
    "internet_access": "wlan",
    "name": "White House Asoke",
    "phone": "+66890423201",
    "tourism": "hotel",
    "wheelchair": "no"
  }
},
{
  "type": "node",
  "id": 4072391009,
  "lat": 13.7521394,
  "lon": 100.5388984,
  "tags": {
    "addr:housenumber": "14/20-29",
    "addr:postcode": "10400",
    "addr:province": "กรุงเทพมหานคร",
    "addr:street": "ถนนเพชรบุรี ซอย19",
    "name": "First House Hotel",
    "tourism": "hotel"
  }
},
{
  "type": "node",
  "id": 4072854337,
  "lat": 13.6719277,
  "lon": 100.5434488,
  "tags": {
    "name": "Riverfront Rama 3",
    "tourism": "hotel"
  }
},
{
  "type": "node",
  "id": 4087946038,
  "lat": 13.7643189,
  "lon": 100.5010011,
  "tags": {
    "addr:housenumber": "21",
    "addr:street": "Samsen Soi 6",
    "name": "Blue House",
    "opening_hours": "Mo-Su 06:00-22:00",
    "phone": "+66897461505",
    "tourism": "hotel"
  }
},
{
  "type": "node",
  "id": 4107060889,
  "lat": 13.7339070,
  "lon": 100.5649877,
  "tags": {
    "internet_access": "wlan",
    "name": "Retro Hotel",
    "tourism": "hotel"
  }
},
{
  "type": "node",
  "id": 4108160394,
  "lat": 13.7615417,
  "lon": 100.5044524,
  "tags": {
    "name": "Hotel De Moc",
    "tourism": "hotel"
  }
},
{
  "type": "node",
  "id": 4114789799,
  "lat": 13.7524548,
  "lon": 100.5048001,
  "tags": {
    "addr:housenumber": "337",
    "addr:street": "ถนนมหาไชย",
    "email": "timmansionbkk@gmail.com",
    "name": "Tim Mansion",
    "phone": "+66 65 353 2549",
    "tourism": "hotel",
    "website": "https://www.timmansionbkk.com"
  }
},
{
  "type": "node",
  "id": 4122328189,
  "lat": 13.7340076,
  "lon": 100.5607730,
  "tags": {
    "addr:housenumber": "9/1",
    "addr:street": "Ratchadaphisek Road",
    "name": "Maduzi",
    "phone": "+66 (0) 2615 6400",
    "tourism": "hotel",
    "website": "https://www.maduzihotel.com/"
  }
},
{
  "type": "node",
  "id": 4130483202,
  "lat": 13.7512805,
  "lon": 100.5354576,
  "tags": {
    "addr:housenumber": "588/1",
    "addr:street": "Petchburi Road",
    "email": "info@residence-hotel.com",
    "internet_access": "wlan",
    "name": "The Residence Rajtaevee Hotel",
    "phone": "+6626565165",
    "tourism": "hotel",
    "website": "residence-hotel.com"
  }
},
{
  "type": "node",
  "id": 4133517033,
  "lat": 13.7367246,
  "lon": 100.5534058,
  "tags": {
    "name": "Swan Inn 2",
    "name:ar": "سوان ان 2",
    "tourism": "hotel"
  }
},
{
  "type": "node",
  "id": 4142476103,
  "lat": 13.7414284,
  "lon": 100.5557818,
  "tags": {
    "addr:housenumber": "131/27",
    "addr:postcode": "10110",
    "addr:province": "กรุงเทพมหานคร",
    "addr:street": "ถนนสุขุมวิท ซอย7/1",
    "name": "ICheck Inn Nana Hotel",
    "tourism": "hotel",
    "website": "http://www.icheckinn.com/hotel.php?sukhumvit"
  }
},
{
  "type": "node",
  "id": 4148555094,
  "lat": 13.7593579,
  "lon": 100.5354145,
  "tags": {
    "internet_access": "wlan",
    "name": "The Motley House",
    "tourism": "hotel"
  }
},
{
  "type": "node",
  "id": 4164238992,
  "lat": 13.7735690,
  "lon": 100.5687828,
  "tags": {
    "name": "Baan Kaew Mansion",
    "tourism": "hotel"
  }
},
{
  "type": "node",
  "id": 4173566689,
  "lat": 13.7294064,
  "lon": 100.4836616,
  "tags": {
    "name": "Over Stay Hotel",
    "tourism": "hotel"
  }
},
{
  "type": "node",
  "id": 4187656508,
  "lat": 13.7571489,
  "lon": 100.5353171,
  "tags": {
    "addr:street": "ถนนศรีอยุธยา",
    "internet_access": "wlan",
    "name": "Noble Revent",
    "phone": "022519955",
    "tourism": "hotel",
    "website": "https://www.noblehome.com/condominium/revent/th/home"
  }
},
{
  "type": "node",
  "id": 4187656800,
  "lat": 13.7600961,
  "lon": 100.5370916,
  "tags": {
    "addr:street": "ถนนพญาไท",
    "name": "The Victory Executive Residences Bangkok",
    "tourism": "hotel",
    "website": "https://www.the-victory.com/"
  }
},
{
  "type": "node",
  "id": 4192896589,
  "lat": 13.7645662,
  "lon": 100.4978595,
  "tags": {
    "check_date": "2025-11-11",
    "name": "The Orchid House",
    "phone": "66855355951",
    "tourism": "hotel"
  }
},
{
  "type": "node",
  "id": 4198104193,
  "lat": 13.7309284,
  "lon": 100.5630721,
  "tags": {
    "name": "BB Boutique Mansion",
    "tourism": "hotel"
  }
},
{
  "type": "node",
  "id": 4198104194,
  "lat": 13.7356188,
  "lon": 100.5619905,
  "tags": {
    "name": "Asoke Suites",
    "tourism": "hotel"
  }
},
{
  "type": "node",
  "id": 4198104195,
  "lat": 13.7351632,
  "lon": 100.5620403,
  "tags": {
    "name": "Darjelling Boutique",
    "phone": "+6626637272",
    "tourism": "hotel",
    "website": "http://www.darjellingboutique.com/"
  }
},
{
  "type": "node",
  "id": 4198120289,
  "lat": 13.7452998,
  "lon": 100.5586064,
  "tags": {
    "addr:housenumber": "81",
    "addr:postcode": "10110",
    "addr:province": "กรุงเทพมหานคร",
    "addr:street": "ถนนสุขุมวิท ซอย15",
    "email": "INFO.MMSB@CHATRIUM.COM",
    "internet_access": "wlan",
    "name": "Maitria Mode Sukhumvit 15",
    "operator": "Chatrium Hotels & Residences",
    "phone": "+66(0) 2 651 3355",
    "tourism": "hotel",
    "website": "https://www.maitriahotels.com/modesukhumvitbangkok"
  }
},
{
  "type": "node",
  "id": 4210457992,
  "lat": 13.6818919,
  "lon": 100.4944661,
  "tags": {
    "name": "Suksawat Hotel Bangkok",
    "tourism": "hotel"
  }
},
{
  "type": "node",
  "id": 4210536391,
  "lat": 13.7590380,
  "lon": 100.5031726,
  "tags": {
    "addr:postcode": "10200",
    "name": "Villa phra sumen",
    "tourism": "hotel"
  }
},
{
  "type": "node",
  "id": 4221556892,
  "lat": 13.7676944,
  "lon": 100.6031389,
  "tags": {
    "addr:housenumber": "474",
    "addr:postcode": "10310",
    "addr:street": "ถนนประชาอุทิศ (รามคำแหง 39)",
    "name": "SC Park Hotel",
    "phone": "025300560",
    "tourism": "hotel",
    "website": "https://www.scparkhotel.com/"
  }
},
{
  "type": "node",
  "id": 4227672991,
  "lat": 13.7500308,
  "lon": 100.5429670,
  "tags": {
    "addr:housenumber": "559",
    "addr:postcode": "10400",
    "addr:street": "ถนนเพชรบุรี",
    "internet_access": "wlan",
    "name": "The Berkeley Hotel Pratunam",
    "phone": "+6623099999",
    "tourism": "hotel"
  }
},
{
  "type": "node",
  "id": 4234467125,
  "lat": 13.7546847,
  "lon": 100.5412959,
  "tags": {
    "internet_access": "wlan",
    "name": "KC Place",
    "tourism": "hotel"
  }
},
{
  "type": "node",
  "id": 4239442693,
  "lat": 13.7229407,
  "lon": 100.5798018,
  "tags": {
    "addr:housenumber": "23",
    "addr:postcode": "10110",
    "addr:street": "สุขุมวิท 38 (ซอยสันติสุข)",
    "name": "Hi-Sukhumvit hostel",
    "tourism": "hotel"
  }
},
{
  "type": "node",
  "id": 4239451091,
  "lat": 13.7221267,
  "lon": 100.5840839,
  "tags": {
    "addr:housenumber": "9/14",
    "addr:postcode": "10110",
    "addr:street": "ซอยสุขุมวิท 63",
    "name": "Nantra Ekamai Hotel",
    "tourism": "hotel"
  }
},
{
  "type": "node",
  "id": 4239569090,
  "lat": 13.7312007,
  "lon": 100.5703106,
  "tags": {
    "addr:housenumber": "1/46-49",
    "addr:postcode": "10110",
    "addr:street": "ถนนสุขุมวิท ซอย39",
    "name": "Nantra Sukhumvit 39 Hotel",
    "tourism": "hotel"
  }
},
{
  "type": "node",
  "id": 4239574789,
  "lat": 13.7193527,
  "lon": 100.5857577,
  "tags": {
    "addr:housenumber": "1323/2",
    "addr:postcode": "10110",
    "addr:street": "ซอยสุขุมวิท 63",
    "name": "63 bangkok boutique bed&breakfast",
    "tourism": "hotel"
  }
},
{
  "type": "node",
  "id": 4239616691,
  "lat": 13.7250197,
  "lon": 100.5777164,
  "tags": {
    "addr:housenumber": "2/7",
    "addr:postcode": "10110",
    "addr:street": "สุขุมวิท 53",
    "name": "Thonglor Suites Hotel",
    "tourism": "hotel"
  }
},
{
  "type": "node",
  "id": 4239902718,
  "lat": 13.7252651,
  "lon": 100.5802029,
  "tags": {
    "addr:housenumber": "123",
    "addr:postcode": "10110",
    "addr:street": "Sukhumvit Soi 57",
    "internet_access": "wlan",
    "name": "Sawasdee Sukhumvit Inn Hotel",
    "tourism": "hotel"
  }
},
{
  "type": "node",
  "id": 4240790889,
  "lat": 13.7295908,
  "lon": 100.5721785,
  "tags": {
    "addr:street": "Sukhumvit 41",
    "internet_access": "wlan",
    "name": "l'amurr",
    "tourism": "hotel"
  }
},
{
  "type": "node",
  "id": 4243824089,
  "lat": 13.7535198,
  "lon": 100.6082848,
  "tags": {
    "addr:postcode": "10240",
    "addr:street": "Ramkamhaeng 15",
    "internet_access": "wlan",
    "name": "Thomson Residence",
    "opening_hours": "Mo-Su 10:00-22:00",
    "phone": "+66 2 719 9491",
    "tourism": "hotel",
    "website": "www.thomsonresidence.com"
  }
},
{
  "type": "node",
  "id": 4245257907,
  "lat": 13.7506084,
  "lon": 100.5204461,
  "tags": {
    "addr:housenumber": "29/36-38",
    "addr:postcode": "10330",
    "addr:street": "Thanon Rama VI, Soi 13, Rong Muang, Pathum Wan",
    "internet_access": "wlan",
    "name": "The Fifith Resident",
    "phone": "022141655",
    "tourism": "hotel",
    "website": "http://www.5thresidence.com"
  }
},
{
  "type": "node",
  "id": 4248050698,
  "lat": 13.7474096,
  "lon": 100.4977159,
  "tags": {
    "name": "Feung Narkhorn ",
    "tourism": "hotel"
  }
},
{
  "type": "node",
  "id": 4249951791,
  "lat": 13.7534858,
  "lon": 100.5391148,
  "tags": {
    "name": "DD House",
    "tourism": "hotel"
  }
},
{
  "type": "node",
  "id": 4258250815,
  "lat": 13.7624863,
  "lon": 100.5023426,
  "tags": {
    "name": "Once in Bangkok ",
    "tourism": "hotel"
  }
},
{
  "type": "node",
  "id": 4269438331,
  "lat": 13.7790255,
  "lon": 100.5760955,
  "tags": {
    "internet_access": "wlan",
    "name": "Amaranta Suites",
    "phone": "+66 2 692 8899",
    "tourism": "hotel",
    "website": "https://www.myhotelratchada.com/"
  }
},
{
  "type": "node",
  "id": 4271560090,
  "lat": 13.7575215,
  "lon": 100.5028628,
  "tags": {
    "internet_access": "wlan",
    "name": "Paragon One Residence",
    "tourism": "hotel"
  }
},
{
  "type": "node",
  "id": 4283507589,
  "lat": 13.7400311,
  "lon": 100.5471023,
  "tags": {
    "addr:street": "ถนนวิทยุ",
    "brand": "Hotel Indigo",
    "brand:wikidata": "Q5911596",
    "name": "อินดิสโก้ (Indiko)",
    "name:en": "Hotel Indigo",
    "name:zh": "英迪格曼谷酒店",
    "tourism": "hotel"
  }
},
{
  "type": "node",
  "id": 4291011089,
  "lat": 13.7182539,
  "lon": 100.5208918,
  "tags": {
    "addr:housenumber": "243/3 Soi 87",
    "addr:postcode": "10120",
    "addr:street": "ถนนสาทรใต้",
    "internet_access": "wlan",
    "name": "The Step Sathon",
    "tourism": "hotel",
    "website": "https://www.stepsathon.com/"
  }
},
{
  "type": "node",
  "id": 4293153892,
  "lat": 13.7546928,
  "lon": 100.5103755,
  "tags": {
    "name": "Smile inn",
    "tourism": "hotel"
  }
},
{
  "type": "node",
  "id": 4293188789,
  "lat": 13.7021980,
  "lon": 100.5374393,
  "tags": {
    "addr:housenumber": "24",
    "addr:postcode": "10120",
    "addr:street": "291 soi naradhiwas Rajanagarindra 24",
    "email": "info.crst@chattium.com",
    "name": "Chatrium Residence",
    "phone": "26720200",
    "tourism": "hotel"
  }
},
{
  "type": "node",
  "id": 4315869093,
  "lat": 13.7518843,
  "lon": 100.5381258,
  "tags": {
    "name": "Ideal Hotel",
    "tourism": "hotel"
  }
},
{
  "type": "node",
  "id": 4327710993,
  "lat": 13.7586780,
  "lon": 100.4969503,
  "tags": {
    "name": "Budget hotel",
    "tourism": "hotel"
  }
},
{
  "type": "node",
  "id": 4327714520,
  "lat": 13.7212046,
  "lon": 100.5280463,
  "tags": {
    "name": "H2 hotel",
    "tourism": "hotel"
  }
},
{
  "type": "node",
  "id": 4329323293,
  "lat": 13.7539610,
  "lon": 100.5150676,
  "tags": {
    "facebook": "https://www.facebook.com/PRINCEPALACE/",
    "image": "https://images.mapillary.com/0-Ez9xZXYgGDak1kZt4YsQ/thumb-2048.jpg",
    "mapillary": "1161576271018940",
    "name": "prince palace",
    "phone": "+66 2 628 1111",
    "tourism": "hotel",
    "website": "https://www.princepalace.co.th/"
  }
},
{
  "type": "node",
  "id": 4331617394,
  "lat": 13.7539992,
  "lon": 100.4845071,
  "tags": {
    "addr:housenumber": "91",
    "name": "Uncle Loy Boutique House",
    "opening_hours": "Mo-Su 06:00-20:00",
    "phone": "028661761",
    "tourism": "hotel"
  }
},
{
  "type": "node",
  "id": 4335224489,
  "lat": 13.7219846,
  "lon": 100.4919234,
  "tags": {
    "name": "Loft inn",
    "tourism": "hotel"
  }
},
{
  "type": "node",
  "id": 4336602589,
  "lat": 13.7533917,
  "lon": 100.5362045,
  "tags": {
    "addr:housenumber": "22",
    "addr:postcode": "10400",
    "addr:street": "ซอยเพชรบุรี 13",
    "alt_name": "Need a Pillow",
    "internet_access": "wlan",
    "name": "NAP Hotel Bangkok",
    "tourism": "hotel",
    "website": "http://www.naphotelbangkok.com/"
  }
},
{
  "type": "node",
  "id": 4340260223,
  "lat": 13.7486934,
  "lon": 100.5415996,
  "tags": {
    "addr:housenumber": "43/5",
    "addr:street": "43/5 Rajdamri Road, Pathumwan, Bangkok, 10330k",
    "name": "Bangkok City Inn",
    "tourism": "hotel"
  }
},
{
  "type": "node",
  "id": 4343864589,
  "lat": 13.7374519,
  "lon": 100.5617699,
  "tags": {
    "addr:housenumber": "4/56",
    "addr:street": "ถนนอโศกมนตรี",
    "name": "Wellness Residence",
    "tourism": "hotel"
  }
},
{
  "type": "node",
  "id": 4353924393,
  "lat": 13.7223717,
  "lon": 100.5182758,
  "tags": {
    "name": "Cocktail Hostel & Bar",
    "tourism": "hotel"
  }
},
{
  "type": "node",
  "id": 4355715911,
  "lat": 13.7237029,
  "lon": 100.5302827,
  "tags": {
    "internet_access": "wlan",
    "name": "Holiday inn express Bangkok sathron",
    "name:zh": "曼谷暹罗智选假日酒店",
    "tourism": "hotel"
  }
},
{
  "type": "node",
  "id": 4356245789,
  "lat": 13.7526317,
  "lon": 100.5466677,
  "tags": {
    "name": "Ecotel",
    "tourism": "hotel"
  }
},
{
  "type": "node",
  "id": 4359481492,
  "lat": 13.7324099,
  "lon": 100.5642449,
  "tags": {
    "brand": "Best Western",
    "brand:wikidata": "Q830334",
    "internet_access": "wlan",
    "name": "Best Western Suk Soi 20",
    "name:th": "Best Western Suk Soi 20",
    "tourism": "hotel"
  }
},
{
  "type": "node",
  "id": 4370542690,
  "lat": 13.7860561,
  "lon": 100.5694018,
  "tags": {
    "name": "bangkok 68",
    "tourism": "hotel"
  }
},
{
  "type": "node",
  "id": 4370546489,
  "lat": 13.7860480,
  "lon": 100.5694400,
  "tags": {
    "name": "bangkok 68",
    "tourism": "hotel"
  }
},
{
  "type": "node",
  "id": 4397808929,
  "lat": 13.8101463,
  "lon": 100.5096182,
  "tags": {
    "addr:hamlet": "2",
    "addr:housenumber": "9/45",
    "addr:postcode": "11130",
    "addr:subdistrict": "Bangkruai",
    "construction": "hotel",
    "email": "rsvn@bellabhotel.com",
    "fax": "+662 409 5784",
    "name": "โรงแรมเบลล่า บี",
    "name:en": "Bella B Hotel",
    "name:th": "โรงแรมเบลล่า บี",
    "note": "From Note 490362",
    "phone": "+662 409 5785-9, +66(9) 4307 7067",
    "tourism": "hotel",
    "website": "http://bellabhotel.com/"
  }
},
{
  "type": "node",
  "id": 4397808933,
  "lat": 13.7730482,
  "lon": 100.5819030,
  "tags": {
    "building": "hotel",
    "name": "All Together Suite Hotel",
    "tourism": "hotel"
  }
},
{
  "type": "node",
  "id": 4403587991,
  "lat": 13.7599974,
  "lon": 100.4986494,
  "tags": {
    "name:sv": "Bangkok home stay",
    "tourism": "hotel"
  }
},
{
  "type": "node",
  "id": 4416951693,
  "lat": 13.7226965,
  "lon": 100.5186136,
  "tags": {
    "name": "Hostel cócktail",
    "tourism": "hotel"
  }
},
{
  "type": "node",
  "id": 4420339595,
  "lat": 13.7235907,
  "lon": 100.5397921,
  "tags": {
    "addr:housename": "Thai Wah Tower II",
    "addr:housenumber": "21",
    "addr:postcode": "10120",
    "addr:street": "Thanon Sathon Tai",
    "name": "Banyan Tree Bangkok",
    "name:en": "Banyan Tree Bangkok",
    "name:ko": "반얀트리호텔 방콕",
    "name:th": "โรงแรมบันยันทรี กรุงเทพ",
    "tourism": "hotel",
    "wikidata": "Q11328466",
    "wikimedia_commons": "Category:Banyan Tree Bangkok"
  }
},
{
  "type": "node",
  "id": 4444512989,
  "lat": 13.7780690,
  "lon": 100.4807830,
  "tags": {
    "name": "Charlie House Pin Klao",
    "tourism": "hotel",
    "website": "https://www.charliehousepinklao.com/"
  }
},
{
  "type": "node",
  "id": 4460300490,
  "lat": 13.7389422,
  "lon": 100.5153219,
  "tags": {
    "air_conditioning": "yes",
    "breakfast": "buffet",
    "contact:email": "info@srikrunghotel.com",
    "contact:fax": "+66 2 225 5705",
    "contact:phone": "+66 2 225 0132",
    "description": "2 elevators available",
    "elevator": "yes",
    "internet_access": "wlan",
    "internet_access:fee": "no",
    "name": "โรงแรมกรุงเกษมศรีกรุง",
    "name:en": "The Krungkasem Srikrung Hotel",
    "name:th": "โรงแรมกรุงเกษมศรีกรุง",
    "name:zh": "曼谷新玛丽V宾馆",
    "phone": "+66 2 225 8900 3",
    "tourism": "hotel",
    "website": "http://www.srikrunghotel.com/"
  }
},
{
  "type": "node",
  "id": 4460699206,
  "lat": 13.7294496,
  "lon": 100.5608749,
  "tags": {
    "addr:housenumber": "180/2",
    "brand": "Aspira",
    "name": "Aspira D'Andora",
    "tourism": "hotel"
  }
},
{
  "type": "node",
  "id": 4460699212,
  "lat": 13.7327978,
  "lon": 100.5625393,
  "tags": {
    "addr:housenumber": "26",
    "addr:postcode": "10110",
    "addr:street": "ซอยสุขุมวิท 18",
    "alt_name": "Maitria Hotel Sukhumvit 18",
    "name": "Maitria Hotel",
    "name:th": "โรงแรมมายเทรียณ์ สุขุมวิท 18",
    "tourism": "hotel"
  }
},
{
  "type": "node",
  "id": 4460699215,
  "lat": 13.7304900,
  "lon": 100.5626271,
  "tags": {
    "name": "Studio Sukhumvit 18",
    "tourism": "hotel"
  }
},
{
  "type": "node",
  "id": 4462541143,
  "lat": 13.7446380,
  "lon": 100.5634986,
  "tags": {
    "name": "Swutel Hotel",
    "tourism": "hotel",
    "website": "http://swutel.net/"
  }
},
{
  "type": "node",
  "id": 4465718389,
  "lat": 13.7527757,
  "lon": 100.5389740,
  "tags": {
    "addr:street": "ถนนเพชรบุรี ซอย19",
    "name": "city home inn",
    "tourism": "hotel"
  }
},
{
  "type": "node",
  "id": 4474753719,
  "lat": 13.7282744,
  "lon": 100.5757072,
  "tags": {
    "name": "Adelphi Fourty-Nine",
    "tourism": "hotel"
  }
},
{
  "type": "node",
  "id": 4480992492,
  "lat": 13.7484924,
  "lon": 100.5275258,
  "tags": {
    "air_conditioning": "yes",
    "breakfast": "buffet",
    "contact:email": "info@happy3.co.th",
    "contact:fax": "+66 2 6124795",
    "contact:phone": "+66 2 6124799",
    "description": "hotel with pool",
    "internet_access": "wlan",
    "name": "Happy3 Residence",
    "name:de": "Happy3 Residence",
    "name:zh": "Happy 3 飯店",
    "tourism": "hotel",
    "website": "http://www.happy3.co.th/"
  }
},
{
  "type": "node",
  "id": 4481184091,
  "lat": 13.7429250,
  "lon": 100.5526500,
  "tags": {
    "name": "Al-Jazeera Hotel",
    "name:th": "Al-Jazeera Hotel",
    "tourism": "hotel"
  }
},
{
  "type": "node",
  "id": 4484744691,
  "lat": 13.7972991,
  "lon": 100.5708028,
  "tags": {
    "addr:housenumber": "19",
    "addr:street": "65/2 Ratchada Soi 19 Road Din Daeng",
    "internet_access": "wlan",
    "name": "1989 Hostel & Café",
    "opening_hours": "24/7",
    "phone": "0818220411",
    "tourism": "hotel"
  }
},
{
  "type": "node",
  "id": 4496262789,
  "lat": 13.7443958,
  "lon": 100.5567180,
  "tags": {
    "name": "CITrus",
    "name:th": "CITrus",
    "tourism": "hotel"
  }
},
{
  "type": "node",
  "id": 4505784422,
  "lat": 13.7613274,
  "lon": 100.4961018,
  "tags": {
    "check_date": "2024-10-01",
    "name": "Rambuttri Village",
    "tourism": "hotel",
    "wheelchair": "limited"
  }
},
{
  "type": "node",
  "id": 4506369202,
  "lat": 13.7382107,
  "lon": 100.5463558,
  "tags": {
    "name": "Oriental Residence",
    "tourism": "hotel",
    "wheelchair": "yes"
  }
},
{
  "type": "node",
  "id": 4522595090,
  "lat": 13.7470724,
  "lon": 100.5525143,
  "tags": {
    "addr:street": "ถนนสุขุมวิท ซอย1",
    "tourism": "hotel"
  }
},
{
  "type": "node",
  "id": 4522600589,
  "lat": 13.7490650,
  "lon": 100.5515705,
  "tags": {
    "tourism": "hotel"
  }
},
{
  "type": "node",
  "id": 4532227964,
  "lat": 13.7711024,
  "lon": 100.5016659,
  "tags": {
    "name": "Baan Manusarn",
    "tourism": "hotel"
  }
},
{
  "type": "node",
  "id": 4541328994,
  "lat": 13.7651438,
  "lon": 100.4964749,
  "tags": {
    "name:fr": "Riverside Guest House",
    "tourism": "hotel"
  }
},
{
  "type": "node",
  "id": 4543462839,
  "lat": 13.7277892,
  "lon": 100.5302121,
  "tags": {
    "internet_access": "wlan",
    "name": "Nantra Silom",
    "tourism": "hotel"
  }
},
{
  "type": "node",
  "id": 4544335156,
  "lat": 13.7213509,
  "lon": 100.5461621,
  "tags": {
    "internet_access": "wlan",
    "name": "โรงแรมทุ่งมหาเมฆ ไปรเวชี่",
    "phone": "022868811",
    "tourism": "hotel"
  }
},
{
  "type": "node",
  "id": 4544807689,
  "lat": 13.7108636,
  "lon": 100.4555421,
  "tags": {
    "tourism": "hotel"
  }
},
{
  "type": "node",
  "id": 4546640889,
  "lat": 13.7427687,
  "lon": 100.5562249,
  "tags": {
    "name": "GRAND PRESIDENT 2",
    "name:th": "GRAND PRESIDENT 2",
    "tourism": "hotel"
  }
},
{
  "type": "node",
  "id": 4555181289,
  "lat": 13.7427316,
  "lon": 100.5564440,
  "tags": {
    "name": "OLD GERMAN BEER HOUSE",
    "name:th": "OLD GERMAN BEER HOUSE",
    "tourism": "hotel"
  }
},
{
  "type": "node",
  "id": 4556314697,
  "lat": 13.7528090,
  "lon": 100.5382383,
  "tags": {
    "name:en": "The Konnect Hotel",
    "tourism": "hotel"
  }
},
{
  "type": "node",
  "id": 4559431190,
  "lat": 13.7622338,
  "lon": 100.4940121,
  "tags": {
    "addr:housenumber": "80",
    "addr:street": "ถนนพระอาทิตย์",
    "name": "Bb House Phra-Athit",
    "name:th": "Bb House Phra-Athit",
    "phone": "6622822411",
    "tourism": "hotel",
    "website": "https://www.bestbedhouse.com/"
  }
},
{
  "type": "node",
  "id": 4563085329,
  "lat": 13.7546453,
  "lon": 100.5106947,
  "tags": {
    "name": "The Region",
    "tourism": "hotel"
  }
},
{
  "type": "node",
  "id": 4564988329,
  "lat": 13.7563687,
  "lon": 100.5002463,
  "tags": {
    "name:fr": "hôtel 90",
    "tourism": "hotel"
  }
},
{
  "type": "node",
  "id": 4572366089,
  "lat": 13.7964348,
  "lon": 100.5716767,
  "tags": {
    "name": "Tanatip Place",
    "name:th": "Tanatip Place",
    "tourism": "hotel"
  }
},
{
  "type": "node",
  "id": 4577295812,
  "lat": 13.7883058,
  "lon": 100.5747725,
  "tags": {
    "contact:email": "doubleddhouse@gmail.com",
    "contact:phone": "+66 2 275 3258",
    "description": "elevator available; coffee free",
    "internet_access": "wlan",
    "internet_access:fee": "no",
    "name": "Double DD house",
    "operator": "Nook Parichaya",
    "smoking": "no",
    "stars": "3",
    "tourism": "hotel",
    "website": "https://www.doubleddhouse.com/"
  }
},
{
  "type": "node",
  "id": 4578541240,
  "lat": 13.7791409,
  "lon": 100.5732972,
  "tags": {
    "breakfast": "no",
    "contact:email": "theparkresidence@hotmail.co.th",
    "contact:fax": "+66 2 692 5996",
    "contact:phone": "+66 2692 5999",
    "internet_access": "wlan",
    "internet_access:fee": "no",
    "name": "The Park Residence",
    "tourism": "hotel",
    "website": "http://www.theparkresidencebangkok.com/"
  }
},
{
  "type": "node",
  "id": 4578761718,
  "lat": 13.7870401,
  "lon": 100.5767823,
  "tags": {
    "contact:email": "spbparadise@yahoo.co.th",
    "contact:fax": "+66 2 694 3263",
    "contact:phone": "+66 2 694 3262",
    "internet_access": "yes",
    "internet_access:fee": "no",
    "name": "SPB Paradise",
    "source": "survey",
    "source:date": "2016-12-28",
    "tourism": "hotel",
    "website": "https://spbparadise.com/home.html"
  }
},
{
  "type": "node",
  "id": 4578761722,
  "lat": 13.7872661,
  "lon": 100.5767849,
  "tags": {
    "contact:email": "booking@diamond-ratchada.in.th",
    "contact:fax": "+662 693 0076",
    "contact:phone": "+662 693 0077",
    "internet_access": "wlan",
    "internet_access:fee": "no",
    "name": "Diamond Residence Ratchada",
    "tourism": "hotel",
    "website": "http://www.diamond-ratchada.in.th/index.html"
  }
},
{
  "type": "node",
  "id": 4579125390,
  "lat": 13.7633404,
  "lon": 100.5421539,
  "tags": {
    "addr:housenumber": "507",
    "addr:street": "ถนนราชวิถี",
    "internet_access": "wlan",
    "name:en": "Must Sea Hotel",
    "tourism": "hotel"
  }
},
{
  "type": "node",
  "id": 4586283530,
  "lat": 13.7469672,
  "lon": 100.5289960,
  "tags": {
    "brand": "Ibis",
    "brand:wikidata": "Q920166",
    "breakfast": "buffet",
    "check_date": "2024-03-08",
    "contact:fax": "+66 2 659 2889",
    "contact:phone": "+66 2 659 2888",
    "dog": "yes",
    "internet_access": "wlan",
    "name": "Hotel Ibis Bangkok Siam",
    "payment:cash": "yes",
    "payment:credit_cards": "yes",
    "payment:debit_cards": "yes",
    "rooms": "189",
    "source": "http://www.ibis.com/de/hotel-8016-ibis-bangkok-siam/index.shtml",
    "stars": "3",
    "tourism": "hotel",
    "website": "http://www.ibis.com/fr/hotel-8016-ibis-bangkok-siam/index.shtml",
    "wheelchair": "yes"
  }
},
{
  "type": "node",
  "id": 4586836962,
  "lat": 13.7482736,
  "lon": 100.5271764,
  "tags": {
    "air_conditioning": "yes",
    "breakfast": "included",
    "contact:email": "ninedesign@outlook.com",
    "contact:fax": "+66 2 612 5044",
    "contact:mobile": "+66 9 856 250 05",
    "contact:phone": "+66 2 612 5043",
    "internet_access": "wlan",
    "name": "Nine Design Place Hotel",
    "source": "survey",
    "stars": "3",
    "tourism": "hotel",
    "website": "http://www.ninedesignplace.com"
  }
},
{
  "type": "node",
  "id": 4587190614,
  "lat": 13.7502520,
  "lon": 100.5457703,
  "tags": {
    "addr:city": "แขวงลุมพินี",
    "addr:housenumber": "1091/213-216",
    "addr:postcode": "10400",
    "addr:street": "Soi Petchburi 33 Alley",
    "internet_access": "wlan",
    "internet_access:fee": "no",
    "name": "P2 Boutique",
    "tourism": "hotel"
  }
},
{
  "type": "node",
  "id": 4588423229,
  "lat": 13.7467978,
  "lon": 100.5294390,
  "tags": {
    "check_date": "2024-03-08",
    "contact:email": "info@muangpholmansion.com",
    "contact:fax": "+66 2 216 8053",
    "contact:phone": "+66 2 219 4445",
    "dog": "no",
    "internet_access": "wlan",
    "name": "Muangphol Mansion",
    "tourism": "hotel",
    "website": "http://www.muangpholmansion.com/"
  }
},
{
  "type": "node",
  "id": 4588466991,
  "lat": 13.7473535,
  "lon": 100.5295209,
  "tags": {
    "air_conditioning": "yes",
    "check_date": "2024-03-08",
    "contact:email": "info@renohotel.co.th",
    "contact:fax": "+66 2 215 3430",
    "contact:phone": "+66 2 215 0026",
    "internet_access": "wlan",
    "internet_access:fee": "customers",
    "name": "Hotel Reno",
    "payment:cash": "yes",
    "payment:credit_cards": "yes",
    "payment:debit_cards": "yes",
    "tourism": "hotel",
    "website": "https://www.renohotel.co.th/",
    "wheelchair": "yes"
  }
},
{
  "type": "node",
  "id": 4594384300,
  "lat": 13.7193120,
  "lon": 100.5635130,
  "tags": {
    "name:en": "I Proud Apartments",
    "tourism": "hotel"
  }
},
{
  "type": "node",
  "id": 4597649890,
  "lat": 13.7549253,
  "lon": 100.5394959,
  "tags": {
    "internet_access": "wlan",
    "name:en": "Grand Omari",
    "tourism": "hotel"
  }
},
{
  "type": "node",
  "id": 4603021589,
  "lat": 13.7475234,
  "lon": 100.5383610,
  "tags": {
    "name": "Centara Grand",
    "name:en": "Centara Grand",
    "tourism": "hotel",
    "wikidata": "Q5058999",
    "wikipedia": "en:Centara Grand and Bangkok Convention Centre"
  }
},
{
  "type": "node",
  "id": 4603705689,
  "lat": 13.7556865,
  "lon": 100.5023579,
  "tags": {
    "addr:housenumber": "78/4",
    "addr:postcode": "10200",
    "addr:street": "ถนนราชดำเนินกลาง",
    "name": "Methavalai Residence",
    "name:en": "Metahvalai residence",
    "name:es": "methavalai residence",
    "tourism": "hotel",
    "website": "http://www.methavalairesidence.com/"
  }
},
{
  "type": "node",
  "id": 4605179889,
  "lat": 13.7029501,
  "lon": 100.5137272,
  "tags": {
    "tourism": "hotel"
  }
},
{
  "type": "node",
  "id": 4605625599,
  "lat": 13.7467947,
  "lon": 100.5029905,
  "tags": {
    "addr:housenumber": "9, 156/5",
    "name": "Cacha Bed Heritage Hotel",
    "phone": "+66 2 216 8950",
    "tourism": "hotel",
    "website": "https://www.cachabed.com/"
  }
},
{
  "type": "node",
  "id": 4622955489,
  "lat": 13.7520489,
  "lon": 100.5386509,
  "tags": {
    "tourism": "hotel"
  }
},
{
  "type": "node",
  "id": 4627767199,
  "lat": 13.7315089,
  "lon": 100.5661976,
  "tags": {
    "name": "Rezt",
    "name:th": "เรซต์ แบงค็อก",
    "tourism": "hotel"
  }
},
{
  "type": "node",
  "id": 4632163489,
  "lat": 13.7304578,
  "lon": 100.5328805,
  "tags": {
    "internet_access": "wlan",
    "name": "ทาไลย์ สวีท",
    "name:en": "Talai Suites",
    "name:th": "ทาไลย์ สวีท",
    "tourism": "hotel"
  }
},
{
  "type": "node",
  "id": 4652121590,
  "lat": 13.7645696,
  "lon": 100.4978464,
  "tags": {
    "internet_access": "wlan",
    "name": "The Orchid House",
    "tourism": "hotel"
  }
},
{
  "type": "node",
  "id": 4665580293,
  "lat": 13.8593699,
  "lon": 100.5327448,
  "tags": {
    "name": "Pak Ping Ing Tang BOutique Hotel",
    "name:en": "Boutique",
    "tourism": "hotel",
    "website": "http://www.pakpinghotel.com",
    "wheelchair": "limited"
  }
},
{
  "type": "node",
  "id": 4673947089,
  "lat": 13.7580229,
  "lon": 100.4988805,
  "tags": {
    "tourism": "hotel"
  }
},
{
  "type": "node",
  "id": 4698277795,
  "lat": 13.7262717,
  "lon": 100.5181680,
  "tags": {
    "addr:housenumber": "412",
    "addr:postcode": "10500",
    "addr:street": "ถนนสุรวงศ์",
    "internet_access": "wlan",
    "name:en": "MA Hotel",
    "phone": "+6622345070",
    "tourism": "hotel",
    "website": "http://www.mahotelbangkok.com"
  }
},
{
  "type": "node",
  "id": 4704576790,
  "lat": 13.7556792,
  "lon": 100.5734272,
  "tags": {
    "tourism": "hotel"
  }
},
{
  "type": "node",
  "id": 4705528923,
  "lat": 13.7192151,
  "lon": 100.5170636,
  "tags": {
    "amenity": "restaurant",
    "name": "Baan Glang Soi",
    "phone": "+66 2 630 9015",
    "stars": "2",
    "tourism": "hotel",
    "website": "bgs.suc-gems.com"
  }
},
{
  "type": "node",
  "id": 4719766191,
  "lat": 13.7528204,
  "lon": 100.5464516,
  "tags": {
    "addr:housenumber": "1091/388",
    "addr:postcode": "10400",
    "addr:street": "New Petchburi Road 33",
    "name": "Ramada by Wyndham D MA Bangkok",
    "name:th": "Ramada dma",
    "tourism": "hotel"
  }
},
{
  "type": "node",
  "id": 4725249590,
  "lat": 13.7263501,
  "lon": 100.5630201,
  "tags": {
    "name:en": "pond",
    "tourism": "hotel"
  }
},
{
  "type": "node",
  "id": 4739865621,
  "lat": 13.7543554,
  "lon": 100.5355558,
  "tags": {
    "name": "vince hotel",
    "tourism": "hotel"
  }
},
{
  "type": "node",
  "id": 4744445632,
  "lat": 13.7286189,
  "lon": 100.5648742,
  "tags": {
    "name": "Liberty place",
    "name:en": "Liberty place",
    "name:th": "Liberty place",
    "tourism": "hotel"
  }
},
{
  "type": "node",
  "id": 4744968181,
  "lat": 13.7408772,
  "lon": 100.5557051,
  "tags": {
    "addr:housenumber": "131/40-41",
    "addr:postcode": "10110",
    "addr:province": "กรุงเทพมหานคร",
    "addr:street": "Sukhumvit Soi 7/1",
    "name": "Aspira Sukhumvit",
    "tourism": "hotel"
  }
},
{
  "type": "node",
  "id": 4744968932,
  "lat": 13.7405418,
  "lon": 100.5558914,
  "tags": {
    "name": "City Lodge",
    "tourism": "hotel"
  }
},
{
  "type": "node",
  "id": 4760002021,
  "lat": 13.7849194,
  "lon": 100.5671356,
  "tags": {
    "name:en": "Buddy Place",
    "tourism": "hotel",
    "wheelchair": "yes"
  }
},
{
  "type": "node",
  "id": 4770624921,
  "lat": 13.7613313,
  "lon": 100.4968527,
  "tags": {
    "name:en": "Thai Garden House",
    "tourism": "hotel"
  }
},
{
  "type": "node",
  "id": 4789222090,
  "lat": 13.7286914,
  "lon": 100.5703765,
  "tags": {
    "addr:housenumber": "8/8",
    "addr:postcode": "10110",
    "addr:street": "ซอยสุขุมวิท 26",
    "name": "Arize Hotel Sukhumvit",
    "tourism": "hotel",
    "website": "https://www.arizehotel.com/"
  }
},
{
  "type": "node",
  "id": 4790241065,
  "lat": 13.7268635,
  "lon": 100.5780737,
  "tags": {
    "addr:housenumber": "26/1",
    "internet_access": "wlan",
    "name": "Volve Hotel",
    "tourism": "hotel"
  }
},
{
  "type": "node",
  "id": 4790917300,
  "lat": 13.7287431,
  "lon": 100.5735101,
  "tags": {
    "name": "Cabochon Hotel & Residence",
    "tourism": "hotel"
  }
},
{
  "type": "node",
  "id": 4792508822,
  "lat": 13.7356329,
  "lon": 100.5103865,
  "tags": {
    "addr:housenumber": "1620/2",
    "addr:postcode": "10100",
    "addr:street": "ถนนทรงวาด",
    "email": "info@loylalong.com",
    "internet_access": "wlan",
    "name": "Loy La Long",
    "name:fr": "Loy La Long",
    "phone": "+6626391390",
    "tourism": "hotel",
    "website": "https://www.loylalong.com/"
  }
},
{
  "type": "node",
  "id": 4795121623,
  "lat": 13.7605642,
  "lon": 100.5060477,
  "tags": {
    "addr:housenumber": "632",
    "addr:postcode": "10200",
    "addr:street": "ถนนวิสุทธิกษัตริย์",
    "internet_access": "wlan",
    "name": "Nanda Heritage Hotel",
    "tourism": "hotel"
  }
},
{
  "type": "node",
  "id": 4816850221,
  "lat": 13.7410075,
  "lon": 100.4958181,
  "tags": {
    "internet_access": "wlan",
    "name": "Onion Hotel",
    "opening_hours": "Mo-Su 07:00-22:00",
    "tourism": "hotel"
  }
},
{
  "type": "node",
  "id": 4828054524,
  "lat": 13.7403546,
  "lon": 100.5555283,
  "tags": {
    "name:en": "Galeria 10",
    "tourism": "hotel"
  }
},
{
  "type": "node",
  "id": 4831306823,
  "lat": 13.7832250,
  "lon": 100.5727024,
  "tags": {
    "internet_access": "wlan",
    "name:en": "Paradise Mansion",
    "phone": "+66 86 392 9666",
    "tourism": "hotel"
  }
},
{
  "type": "node",
  "id": 4853286429,
  "lat": 13.7332197,
  "lon": 100.5636006,
  "tags": {
    "name": "Windsor Suites",
    "tourism": "hotel"
  }
},
{
  "type": "node",
  "id": 4863244322,
  "lat": 13.7495443,
  "lon": 100.5611103,
  "tags": {
    "name:en": "Dvaree express Hotel",
    "tourism": "hotel"
  }
},
{
  "type": "node",
  "id": 4867303021,
  "lat": 13.7466607,
  "lon": 100.6087031,
  "tags": {
    "name:en": "Patra",
    "tourism": "hotel"
  }
},
{
  "type": "node",
  "id": 4879591123,
  "lat": 13.7332582,
  "lon": 100.5705426,
  "tags": {
    "name": "Sereine",
    "tourism": "hotel"
  }
},
{
  "type": "node",
  "id": 4889051322,
  "lat": 13.7543311,
  "lon": 100.5322633,
  "tags": {
    "addr:district": "ราชเทวี",
    "addr:housenumber": "282",
    "addr:postcode": "10400",
    "addr:province": "กรุงเทพมหานคร",
    "addr:street": "ถนนพญาไท",
    "addr:subdistrict": "ถนนเพชรบุรี",
    "email": "houseofphayathai@gmail.com",
    "internet_access": "wlan",
    "name:en": "House of Phayathai",
    "phone": "021014280",
    "tourism": "hotel"
  }
},
{
  "type": "node",
  "id": 4907284122,
  "lat": 13.7513874,
  "lon": 100.5370385,
  "tags": {
    "name:en": "Centre Point",
    "tourism": "hotel"
  }
},
{
  "type": "node",
  "id": 4907284123,
  "lat": 13.7380373,
  "lon": 100.5629720,
  "tags": {
    "tourism": "hotel"
  }
},
{
  "type": "node",
  "id": 4907286425,
  "lat": 13.7387631,
  "lon": 100.5627082,
  "tags": {
    "tourism": "hotel"
  }
},
{
  "type": "node",
  "id": 4907290521,
  "lat": 13.7386776,
  "lon": 100.5626203,
  "tags": {
    "highway": "bus_stop",
    "tourism": "hotel"
  }
},
{
  "type": "node",
  "id": 4929911321,
  "lat": 13.7559724,
  "lon": 100.5358628,
  "tags": {
    "name": "PS Metro",
    "name:en": "PS Metro",
    "tourism": "hotel"
  }
},
{
  "type": "node",
  "id": 4956171632,
  "lat": 13.7400128,
  "lon": 100.5595424,
  "tags": {
    "addr:housenumber": "29",
    "addr:postcode": "10110",
    "addr:province": "กรุงเทพมหานคร",
    "addr:street": "ถนนสุขุมวิท ซอย19",
    "email": "info@artehotelbangkok.com",
    "name": "Arte Hotel",
    "phone": "+66 2 108 3378",
    "tourism": "hotel"
  }
},
{
  "type": "node",
  "id": 4961952021,
  "lat": 13.8351591,
  "lon": 100.5703345,
  "tags": {
    "addr:street": "Soi Pahonyothin 41",
    "name:en": "Sawasdee Place",
    "tourism": "hotel"
  }
},
{
  "type": "node",
  "id": 4971985722,
  "lat": 13.8182269,
  "lon": 100.5762721,
  "tags": {
    "addr:housenumber": "39/1",
    "addr:postcode": "10900",
    "addr:street": "ถนนรัชดาภิเษก",
    "name": "โรงแรมจันทรเกษมปาร์ค",
    "tourism": "hotel"
  }
},
{
  "type": "node",
  "id": 5003146721,
  "lat": 13.7531255,
  "lon": 100.5383084,
  "tags": {
    "addr:street": "ถนนเพชรบุรี ซอย17",
    "name": "Benzene House",
    "tourism": "hotel"
  }
},
{
  "type": "node",
  "id": 5028339364,
  "lat": 13.7619434,
  "lon": 100.4970272,
  "tags": {
    "name": "Adamaz House",
    "tourism": "hotel"
  }
},
{
  "type": "node",
  "id": 5035070123,
  "lat": 13.7649314,
  "lon": 100.4820016,
  "tags": {
    "name": "อรุณ 39",
    "name:en": "ArunHaus 39",
    "name:th": "อรุณ 39",
    "tourism": "hotel"
  }
},
{
  "type": "node",
  "id": 5100102822,
  "lat": 13.7421567,
  "lon": 100.5496451,
  "tags": {
    "tourism": "hotel"
  }
},
{
  "type": "node",
  "id": 5163795521,
  "lat": 13.7420206,
  "lon": 100.5933314,
  "tags": {
    "addr:postcode": "10310",
    "addr:street": "3218 New Petchburi Road Huay Kwang Bang Kapi, Krung Thep Maha Nakhon 10310, Thailand",
    "internet_access": "wlan",
    "name:en": "P.S. Residence",
    "phone": "+66 2 318 1780",
    "tourism": "hotel"
  }
},
{
  "type": "node",
  "id": 5180083722,
  "lat": 13.7556389,
  "lon": 100.5434012,
  "tags": {
    "name:en": "The best Bangkok House",
    "tourism": "hotel"
  }
},
{
  "type": "node",
  "id": 5208947723,
  "lat": 13.7392500,
  "lon": 100.5875227,
  "tags": {
    "name": "court capri",
    "name:th": "court capri",
    "tourism": "hotel"
  }
},
{
  "type": "node",
  "id": 5234091721,
  "lat": 13.7191485,
  "lon": 100.5313100,
  "tags": {
    "name:pt": "anantara",
    "tourism": "hotel"
  }
},
{
  "type": "node",
  "id": 5239485721,
  "lat": 13.7272122,
  "lon": 100.5732261,
  "tags": {
    "addr:housenumber": "1/45-1/48",
    "addr:postcode": "10110",
    "addr:street": "สุขุมวิท ซอย30",
    "internet_access": "wlan",
    "name:en": "MonkeyNap Hostel",
    "tourism": "hotel"
  }
},
{
  "type": "node",
  "id": 5262943721,
  "lat": 13.7957773,
  "lon": 100.5741300,
  "tags": {
    "name:en": "Chaophaya Park Hotel",
    "tourism": "hotel"
  }
},
{
  "type": "node",
  "id": 5267485523,
  "lat": 13.7415603,
  "lon": 100.5485578,
  "tags": {
    "name:de": "unserer HOTEL",
    "tourism": "hotel"
  }
},
{
  "type": "node",
  "id": 5267492521,
  "lat": 13.7424687,
  "lon": 100.5472344,
  "tags": {
    "internet_access": "wlan",
    "name:de": "mein Hotel",
    "tourism": "hotel"
  }
},
{
  "type": "node",
  "id": 5282681392,
  "lat": 13.7220443,
  "lon": 100.5053671,
  "tags": {
    "building": "yes",
    "level": "7",
    "name": "Aim House",
    "tourism": "hotel"
  }
},
{
  "type": "node",
  "id": 5297006535,
  "lat": 13.7606519,
  "lon": 100.4975314,
  "tags": {
    "name:fr": "Rang Kha Mhin",
    "tourism": "hotel"
  }
},
{
  "type": "node",
  "id": 5302826422,
  "lat": 13.7224224,
  "lon": 100.5183252,
  "tags": {
    "name:en": "cocktail hostel and bar",
    "tourism": "hotel"
  }
},
{
  "type": "node",
  "id": 5320275021,
  "lat": 13.7423832,
  "lon": 100.5492875,
  "tags": {
    "name": "نوفيتيل",
    "tourism": "hotel"
  }
},
{
  "type": "node",
  "id": 5321262721,
  "lat": 13.7556228,
  "lon": 100.5381966,
  "tags": {
    "name:en": "Pratunam Family House",
    "tourism": "hotel"
  }
},
{
  "type": "node",
  "id": 5353601322,
  "lat": 13.7389874,
  "lon": 100.5583525,
  "tags": {
    "name": "Ruamchitt plaza hotel",
    "tourism": "hotel"
  }
},
{
  "type": "node",
  "id": 5382326921,
  "lat": 13.7483977,
  "lon": 100.4990615,
  "tags": {
    "name:en": "K8 Hostel",
    "tourism": "hotel"
  }
},
{
  "type": "node",
  "id": 5420488421,
  "lat": 13.7642051,
  "lon": 100.4997710,
  "tags": {
    "name": "SS Hotel",
    "tourism": "hotel"
  }
},
{
  "type": "node",
  "id": 5426091068,
  "lat": 13.7390365,
  "lon": 100.5107786,
  "tags": {
    "name": "Chata boutique hotel",
    "tourism": "hotel"
  }
},
{
  "type": "node",
  "id": 5437705023,
  "lat": 13.7428633,
  "lon": 100.5566459,
  "tags": {
    "name": "Grand President",
    "tourism": "hotel"
  }
},
{
  "type": "node",
  "id": 5477445821,
  "lat": 13.7449877,
  "lon": 100.5415248,
  "tags": {
    "name": "เพลอน็อต",
    "name:th": "เพลอน็อต",
    "tourism": "hotel"
  }
},
{
  "type": "node",
  "id": 5486035928,
  "lat": 13.7469847,
  "lon": 100.5288795,
  "tags": {
    "addr:housenumber": "927",
    "addr:postcode": "10330",
    "addr:province": "กรุงเทพมหานคร",
    "addr:street": "ถนนพระรามที่ 1",
    "amenity": "restaurant",
    "breakfast": "buffet",
    "check_date": "2024-03-08",
    "contact:fax": "+66 2 659 2889",
    "contact:phone": "+66 2 659 2888",
    "dog": "yes",
    "internet_access": "wlan",
    "internet_access:fee": "no",
    "name": "Hotel Mercure Bangkok Siam",
    "payment:cash": "yes",
    "payment:credit_cards": "yes",
    "payment:debit_cards": "yes",
    "rooms": "189",
    "stars": "4",
    "tourism": "hotel",
    "website": "https://www.accorhotels.com/en/hotel-8015-mercure-bangkok-siam/index.shtml",
    "wheelchair": "yes"
  }
},
{
  "type": "node",
  "id": 5508674123,
  "lat": 13.7560029,
  "lon": 100.5365196,
  "tags": {
    "addr:housenumber": "33",
    "addr:street": "Phetchaburi 11",
    "internet_access": "yes",
    "internet_access:fee": "no",
    "name": "Top High Airport Link Hotel",
    "name:en": "Top High Airport Link Hotel",
    "phone": "+66 2 253 4396",
    "rooms": "84",
    "stars": "3",
    "tourism": "hotel",
    "website": "http://tophighairportlinkhotel.com/"
  }
},
{
  "type": "node",
  "id": 5512342524,
  "lat": 13.7244467,
  "lon": 100.5211977,
  "tags": {
    "addr:housenumber": "298/3-7",
    "addr:postcode": "10500",
    "addr:street": "28 สีลม",
    "name": "Icheck Inn Silom",
    "tourism": "hotel"
  }
},
{
  "type": "node",
  "id": 5526629621,
  "lat": 13.7268875,
  "lon": 100.5393418,
  "tags": {
    "addr:street": "Soi Sala Daeng 1/1",
    "name:en": "The Sunrise Residence",
    "tourism": "hotel"
  }
},
{
  "type": "node",
  "id": 5567934052,
  "lat": 13.7500018,
  "lon": 100.5383513,
  "tags": {
    "addr:postcode": "10400",
    "name": "grand diamond hotel",
    "tourism": "hotel"
  }
},
{
  "type": "node",
  "id": 5572388724,
  "lat": 13.7269499,
  "lon": 100.4861409,
  "tags": {
    "name:en": "Motif Condominium",
    "tourism": "hotel"
  }
},
{
  "type": "node",
  "id": 5578077422,
  "lat": 13.7238793,
  "lon": 100.5309809,
  "tags": {
    "internet_access": "wlan",
    "name": "FuramaXclusive Sathorn",
    "tourism": "hotel"
  }
},
{
  "type": "node",
  "id": 5645454824,
  "lat": 13.7900304,
  "lon": 100.5420659,
  "tags": {
    "addr:postcode": "10400",
    "check_date": "2023-06-04",
    "internet_access": "yes",
    "internet_access:fee": "customers",
    "name": "Siam Palace Hotel",
    "name:en": "Siam Palace Hotel",
    "name:th": "Siam Palace Hotel",
    "phone": "+66 66 146 9464",
    "tourism": "hotel"
  }
},
{
  "type": "node",
  "id": 5658739027,
  "lat": 13.7658444,
  "lon": 100.5007112,
  "tags": {
    "addr:housenumber": "176",
    "addr:street": "ถนนสามเสน",
    "email": "info@casanithra.com",
    "internet_access": "wlan",
    "name:en": "Casa Nithra Bangkok",
    "phone": "+6626286228",
    "tourism": "hotel",
    "website": "http://www.casanithra.com"
  }
},
{
  "type": "node",
  "id": 5694674258,
  "lat": 13.7449539,
  "lon": 100.5227523,
  "tags": {
    "addr:housenumber": "79",
    "addr:postcode": "10330",
    "addr:street": "Rong muang 5 alley",
    "internet_access": "wlan",
    "name": "ซีเรสซิเดนซ์สวีท อพาร์ทเมนท์",
    "name:en": "C Residence Suite Apartment",
    "phone": "+66 2 215 7799",
    "tourism": "hotel",
    "website": "http://www.cresidencebangkok.com"
  }
},
{
  "type": "node",
  "id": 5709944622,
  "lat": 13.7630549,
  "lon": 100.4993683,
  "tags": {
    "name:fr": "Nouvo city hotel",
    "tourism": "hotel"
  }
},
{
  "type": "node",
  "id": 5719147484,
  "lat": 13.7392742,
  "lon": 100.5888095,
  "tags": {
    "addr:district": "Watthana",
    "addr:housenumber": "559",
    "addr:postcode": "10110",
    "addr:province": "กรุงเทพมหานคร",
    "addr:street": "ซอยสุขุมวิท 63",
    "addr:subdistrict": "Khlong Tan Nuea",
    "brand": "Mövenpick",
    "brand:wikidata": "Q691162",
    "name": "Mövenpick Ekkamai Bangkok",
    "name:en": "Mövenpick Residences Ekkamai Bangkok",
    "tourism": "hotel",
    "website": "https://movenpick.accor.com/en/asia/thailand/bangkok.html"
  }
},
{
  "type": "node",
  "id": 5759647221,
  "lat": 13.7458248,
  "lon": 100.5033733,
  "tags": {
    "name": "Burapa",
    "tourism": "hotel"
  }
},
{
  "type": "node",
  "id": 5778193257,
  "lat": 13.7603221,
  "lon": 100.4972877,
  "tags": {
    "addr:street": "ตานี",
    "name:en": "Villa Cha Cha",
    "tourism": "hotel"
  }
},
{
  "type": "node",
  "id": 5810491153,
  "lat": 13.7544294,
  "lon": 100.5424812,
  "tags": {
    "tourism": "hotel"
  }
},
{
  "type": "node",
  "id": 5867311242,
  "lat": 13.7343045,
  "lon": 100.5632752,
  "tags": {
    "addr:housenumber": "3/13-14",
    "addr:province": "กรุงเทพมหานคร",
    "addr:street": "Sukhumvit Soi 18 Sukhumvit Rd. Klongtoey",
    "internet_access": "wlan",
    "name": "Baan Sukhumvit Soi 18",
    "tourism": "hotel"
  }
},
{
  "type": "node",
  "id": 5887280685,
  "lat": 13.7578660,
  "lon": 100.5641988,
  "tags": {
    "name": "Centric",
    "tourism": "hotel"
  }
},
{
  "type": "node",
  "id": 5899745285,
  "lat": 13.7514089,
  "lon": 100.5375233,
  "tags": {
    "name": "Leela Orchid Hotel",
    "tourism": "hotel"
  }
},
{
  "type": "node",
  "id": 5935855496,
  "lat": 13.7559711,
  "lon": 100.5101538,
  "tags": {
    "addr:housenumber": "90/2-5",
    "addr:postcode": "10100",
    "addr:street": "หลานหลวง 4",
    "email": "Visuthouse@gmail.com",
    "internet_access": "wlan",
    "name": "VISUT House",
    "phone": "020108855",
    "tourism": "hotel"
  }
},
{
  "type": "node",
  "id": 5940032886,
  "lat": 13.7644088,
  "lon": 100.4999329,
  "tags": {
    "name": "Born Free Hostel",
    "tourism": "hotel"
  }
},
{
  "type": "node",
  "id": 6046136285,
  "lat": 13.7557642,
  "lon": 100.5001613,
  "tags": {
    "addr:housenumber": "35",
    "addr:postcode": "10200",
    "addr:street": "Trok Silp Dinso Road",
    "internet_access": "wlan",
    "name:en": "Villa Siam & Spa",
    "phone": "+66 88 895 8219",
    "tourism": "hotel"
  }
},
{
  "type": "node",
  "id": 6154875112,
  "lat": 13.7732144,
  "lon": 100.5412231,
  "tags": {
    "addr:housenumber": "5/36",
    "addr:postcode": "10400",
    "addr:province": "กรุงเทพมหานคร",
    "addr:street": "พหลโยธิน ซอย 3",
    "internet_access": "yes",
    "name": "Abloom Exclusive Serviced Apartments",
    "tourism": "hotel",
    "website": "https://abloombangkok.com/"
  }
},
{
  "type": "node",
  "id": 6195868385,
  "lat": 13.7249883,
  "lon": 100.5304674,
  "tags": {
    "name": "trinity complex",
    "tourism": "hotel"
  }
},
{
  "type": "node",
  "id": 6207829885,
  "lat": 13.7543146,
  "lon": 100.5272332,
  "tags": {
    "addr:street": "ถนนเพชรบุรี",
    "internet_access": "wlan",
    "name:en": "Forrest Bangkok Hotel",
    "tourism": "hotel"
  }
},
{
  "type": "node",
  "id": 6218960385,
  "lat": 13.7531235,
  "lon": 100.5455619,
  "tags": {
    "internet_access": "wlan",
    "name:en": "Makkasan Inn",
    "tourism": "hotel"
  }
},
{
  "type": "node",
  "id": 6226768648,
  "lat": 13.7621755,
  "lon": 100.4943693,
  "tags": {
    "addr:housenumber": "80",
    "addr:street": "Phra Athit",
    "name": "ZEN Rooms Basic",
    "tourism": "hotel",
    "website": "https://www.zenrooms.com/"
  }
},
{
  "type": "node",
  "id": 6239152442,
  "lat": 13.7843077,
  "lon": 100.5129404,
  "tags": {
    "addr:housenumber": "580",
    "addr:street": "Soi Si Yan 1 Nakornchaisri rd",
    "internet_access": "wlan",
    "name": "UMA Residence",
    "tourism": "hotel"
  }
},
{
  "type": "node",
  "id": 6257111986,
  "lat": 13.7404210,
  "lon": 100.5099778,
  "tags": {
    "check_date": "2024-10-18",
    "name": "Royal",
    "tourism": "hotel"
  }
},
{
  "type": "node",
  "id": 6257112085,
  "lat": 13.7388829,
  "lon": 100.5120083,
  "tags": {
    "name:en": "New Empire",
    "tourism": "hotel"
  }
},
{
  "type": "node",
  "id": 6274385897,
  "lat": 13.7561468,
  "lon": 100.4975426,
  "tags": {
    "name:en": "Palace",
    "tourism": "hotel"
  }
},
{
  "type": "node",
  "id": 6274385910,
  "lat": 13.7762455,
  "lon": 100.4801440,
  "tags": {
    "name:en": "S. D Avenue",
    "tourism": "hotel"
  }
},
{
  "type": "node",
  "id": 6274386091,
  "lat": 13.7577254,
  "lon": 100.5022277,
  "tags": {
    "tourism": "hotel"
  }
},
{
  "type": "node",
  "id": 6274423489,
  "lat": 13.7635249,
  "lon": 100.5047653,
  "tags": {
    "name:en": "K. T.",
    "tourism": "hotel"
  }
},
{
  "type": "node",
  "id": 6288938485,
  "lat": 13.7761646,
  "lon": 100.4801329,
  "tags": {
    "addr:street": "Pin Klao",
    "internet_access": "wlan",
    "name:en": "S.D. AVENUE HOTEL",
    "phone": "028133111",
    "tourism": "hotel"
  }
},
{
  "type": "node",
  "id": 6290749187,
  "lat": 13.7627942,
  "lon": 100.5010187,
  "tags": {
    "name:en": "PaperMoon",
    "tourism": "hotel"
  }
},
{
  "type": "node",
  "id": 6295782185,
  "lat": 13.7609055,
  "lon": 100.4936522,
  "tags": {
    "internet_access": "wlan",
    "name": "BB House",
    "tourism": "hotel",
    "website": "https://www.bestbedhouse.com/"
  }
},
{
  "type": "node",
  "id": 6298671686,
  "lat": 13.7897322,
  "lon": 100.5483658,
  "tags": {
    "name:en": "The Platform",
    "tourism": "hotel"
  }
},
{
  "type": "node",
  "id": 6300886085,
  "lat": 13.7652215,
  "lon": 100.4958906,
  "tags": {
    "addr:postcode": "10200",
    "name:en": "V Varee",
    "tourism": "hotel"
  }
},
{
  "type": "node",
  "id": 6319998585,
  "lat": 13.7552251,
  "lon": 100.4964954,
  "tags": {
    "name": "Siri Heritage Bangkok Hotel",
    "name:en": "Siri Heritage Bangkok Hotel",
    "phone": "022240095",
    "tourism": "hotel"
  }
},
{
  "type": "node",
  "id": 6320945685,
  "lat": 13.7177943,
  "lon": 100.5241341,
  "tags": {
    "name:en": "Flawless Sathorn Residence",
    "tourism": "hotel"
  }
},
{
  "type": "node",
  "id": 6380469727,
  "lat": 13.7557531,
  "lon": 100.5032367,
  "tags": {
    "addr:city": "แขวงบวรนิเวศ",
    "addr:housenumber": "160",
    "addr:postcode": "10200",
    "addr:street": "ถนนราชดำเนินกลาง",
    "email": "rsvn@siam-champss.com",
    "internet_access": "yes",
    "internet_access:fee": "no",
    "name": "Siam Champs-Élyséesi",
    "phone": "+6622240141",
    "smoking": "no",
    "tourism": "hotel",
    "website": "https://www.siam-champss.com/"
  }
},
{
  "type": "node",
  "id": 6390064158,
  "lat": 13.8437438,
  "lon": 100.4972932,
  "tags": {
    "name": "BED BY BOAT Hotel & Apt. 24 hr.",
    "name:en": "BED BY BOAT Hotel & Apt. 24 hr.",
    "phone": "0846465252",
    "tourism": "hotel"
  }
},
{
  "type": "node",
  "id": 6391901513,
  "lat": 13.7514035,
  "lon": 100.4988288,
  "tags": {
    "name:en": "S Hotel 1962",
    "tourism": "hotel"
  }
},
{
  "type": "node",
  "id": 6407176806,
  "lat": 13.7451147,
  "lon": 100.4911408,
  "tags": {
    "addr:city": "กรุงเทพมหานคร",
    "addr:district": "พระนคร",
    "addr:housenumber": "57-61",
    "addr:place": "ท่าเตียน",
    "addr:postcode": "10200",
    "addr:province": "กรุงเทพมหานคร",
    "addr:street": "ถนนมหาราช",
    "addr:subdistrict": "พระบรมมหาราชวัง",
    "email": "info@innaday.com",
    "internet_access": "yes",
    "name": "INN A DAY",
    "phone": "+6622210577",
    "rooms": "9",
    "tourism": "hotel",
    "website": "https://www.innaday.com/"
  }
},
{
  "type": "node",
  "id": 6447390589,
  "lat": 13.7623157,
  "lon": 100.5038021,
  "tags": {
    "name": "Better together Hostel",
    "tourism": "hotel"
  }
},
{
  "type": "node",
  "id": 6447788186,
  "lat": 13.7181260,
  "lon": 100.5010026,
  "tags": {
    "name": "White Ivory Bed and Breakfast",
    "tourism": "hotel"
  }
},
{
  "type": "node",
  "id": 6447788187,
  "lat": 13.7179678,
  "lon": 100.5013442,
  "tags": {
    "name": "The Pattern Boutique Hotel",
    "tourism": "hotel"
  }
},
{
  "type": "node",
  "id": 6467172685,
  "lat": 13.7540030,
  "lon": 100.5371778,
  "tags": {
    "addr:city": "แขวงถนนพญาไท",
    "addr:housenumber": "49/16-19",
    "addr:postcode": "10400",
    "addr:street": "ซอยเพชรบุรี 15",
    "brand": "ASCELLA",
    "email": "ascellabangkok@gmail.com",
    "internet_access": "yes",
    "internet_access:fee": "no",
    "name": "ASCELLA BANGKOK HOTEL",
    "phone": "+6622511115",
    "rooms": "42",
    "tourism": "hotel"
  }
},
{
  "type": "node",
  "id": 6512450957,
  "lat": 13.7521598,
  "lon": 100.5447171,
  "tags": {
    "addr:housenumber": "487/48",
    "addr:postcode": "10400",
    "addr:province": "กรุงเทพมหานคร",
    "addr:street": "Soi Ratchaprarop 4, Ratchaprarop Road, Makkasan, Ratchathewi",
    "air_conditioning": "yes",
    "internet_access": "wlan",
    "internet_access:fee": "no",
    "name": "Borarn House Hotel",
    "rooms": "19",
    "tourism": "hotel"
  }
},
{
  "type": "node",
  "id": 6548672685,
  "lat": 13.7431481,
  "lon": 100.4768143,
  "tags": {
    "name": "Sivalai Place",
    "tourism": "hotel"
  }
},
{
  "type": "node",
  "id": 6594633185,
  "lat": 13.7309368,
  "lon": 100.5341088,
  "tags": {
    "name": "Park Plaza Sukhumvit",
    "tourism": "hotel"
  }
},
{
  "type": "node",
  "id": 6597090687,
  "lat": 13.7178602,
  "lon": 100.4787322,
  "tags": {
    "name": "Rembrandt",
    "tourism": "hotel"
  }
},
{
  "type": "node",
  "id": 6597092285,
  "lat": 13.7997541,
  "lon": 100.5128571,
  "tags": {
    "name:fr": "hôtel Rembrandt",
    "tourism": "hotel"
  }
},
{
  "type": "node",
  "id": 6634320786,
  "lat": 13.8119977,
  "lon": 100.5617932,
  "tags": {
    "name": "เดอะ ควอเตอร์ ลาดพร้าว บาย ยูเอชจี",
    "name:en": "The Quarter Ladprao by UHG",
    "tourism": "hotel"
  }
},
{
  "type": "node",
  "id": 6660173785,
  "lat": 13.7410300,
  "lon": 100.5419146,
  "tags": {
    "name:en": "Courtyard by marriott Thailand",
    "tourism": "hotel"
  }
},
{
  "type": "node",
  "id": 6680400686,
  "lat": 13.7618762,
  "lon": 100.4934920,
  "tags": {
    "addr:housenumber": "10",
    "addr:postcode": "10200",
    "addr:street": "ถนนพระอาทิตย์",
    "name:es": "chillax heritage hotel",
    "phone": "+6622818899",
    "tourism": "hotel"
  }
},
{
  "type": "node",
  "id": 6688470995,
  "lat": 13.7438989,
  "lon": 100.5471378,
  "tags": {
    "addr:housenumber": "88",
    "addr:street": "ถนนวิทยุ",
    "name": "Park Hyatt Bangkok",
    "tourism": "hotel",
    "website": "https://www.hyatt.com/"
  }
},
{
  "type": "node",
  "id": 6801406755,
  "lat": 13.7449456,
  "lon": 100.5573510,
  "tags": {
    "air_conditioning": "yes",
    "internet_access": "wlan",
    "internet_access:fee": "no",
    "name": "Travelodge Sukhumvit 11",
    "phone": "+66 2 491 3999",
    "stars": "4",
    "tourism": "hotel",
    "wheelchair": "yes"
  }
},
{
  "type": "node",
  "id": 6830768224,
  "lat": 13.7469203,
  "lon": 100.5871528,
  "tags": {
    "name": "A One hotel",
    "tourism": "hotel"
  }
},
{
  "type": "node",
  "id": 6848982905,
  "lat": 13.7480876,
  "lon": 100.5270428,
  "tags": {
    "air_conditioning": "yes",
    "breakfast": "buffet",
    "contact:email": "res@darayahotel.com",
    "contact:phone": "+66 2 6123911",
    "elevator": "yes",
    "internet_access": "wlan",
    "internet_access:fee": "no",
    "name": "Daraya - Boutique Hotel",
    "swimming_pool": "yes",
    "tourism": "hotel",
    "website": "https://darayahotel.com/"
  }
},
{
  "type": "node",
  "id": 7006031586,
  "lat": 13.7621537,
  "lon": 100.4940209,
  "tags": {
    "internet_access": "wlan",
    "name": "Khaosan Art Hotel",
    "tourism": "hotel"
  }
},
{
  "type": "node",
  "id": 7029185661,
  "lat": 13.7659201,
  "lon": 100.4980087,
  "tags": {
    "name": "Bangkok Saran Poshtel",
    "opening_hours": "24/7",
    "tourism": "hotel",
    "website": "https://www.bangkoksaran.com"
  }
},
{
  "type": "node",
  "id": 7068164633,
  "lat": 13.7601671,
  "lon": 100.4983123,
  "tags": {
    "name": "อินทนิล",
    "name:en": "Inthanin",
    "name:th": "อินทนิล",
    "tourism": "hotel"
  }
},
{
  "type": "node",
  "id": 7068182044,
  "lat": 13.7602891,
  "lon": 100.4981091,
  "tags": {
    "internet_access": "yes",
    "internet_access:fee": "no",
    "internet_access:type": "wlan",
    "name": "Tanee place",
    "payment:cash": "yes",
    "payment:mastercard": "yes",
    "payment:visa": "yes",
    "tourism": "hotel"
  }
},
{
  "type": "node",
  "id": 7078974685,
  "lat": 13.7292385,
  "lon": 100.5692447,
  "tags": {
    "addr:postcode": "10110",
    "addr:street": "ถนนสุขุมวิท ซอย 24",
    "brand": "Mercure",
    "brand:wikidata": "Q1709809",
    "internet_access": "wlan",
    "internet_access:fee": "customers",
    "name": "Mercure",
    "name:en": "Mercure Bangkok Sukhumvit 24",
    "tourism": "hotel"
  }
},
{
  "type": "node",
  "id": 7086006633,
  "lat": 13.8195101,
  "lon": 100.5755959,
  "tags": {
    "name": "เอ.ดี คอนโดมิเนียม",
    "tourism": "hotel"
  }
},
{
  "type": "node",
  "id": 7104264286,
  "lat": 13.7521158,
  "lon": 100.5384929,
  "tags": {
    "name": "Juldi’s Mansion",
    "tourism": "hotel"
  }
},
{
  "type": "node",
  "id": 7104313486,
  "lat": 13.7526242,
  "lon": 100.5383613,
  "tags": {
    "name": "Benz House",
    "tourism": "hotel"
  }
},
{
  "type": "node",
  "id": 7125645386,
  "lat": 13.7600614,
  "lon": 100.4939938,
  "tags": {
    "name:en": "BB Hause Rambuti",
    "tourism": "hotel"
  }
},
{
  "type": "node",
  "id": 7140161177,
  "lat": 13.7609890,
  "lon": 100.5398836,
  "tags": {
    "name": "Royal View Resort",
    "smoking": "outside",
    "tourism": "hotel",
    "wheelchair": "no"
  }
},
{
  "type": "node",
  "id": 7140195229,
  "lat": 13.7551282,
  "lon": 100.5329715,
  "tags": {
    "name": "Qarter Residence",
    "tourism": "hotel"
  }
},
{
  "type": "node",
  "id": 7142615385,
  "lat": 13.7255311,
  "lon": 100.5254555,
  "tags": {
    "addr:housenumber": "18, 20-22",
    "addr:postcode": "10500",
    "addr:street": "Decho Road",
    "internet_access": "wlan",
    "name:fr": "Lullaby inn silom",
    "tourism": "hotel"
  }
},
{
  "type": "node",
  "id": 7178945790,
  "lat": 13.7739588,
  "lon": 100.5811856,
  "tags": {
    "name:en": "Siam Privi",
    "tourism": "hotel"
  }
},
{
  "type": "node",
  "id": 7187364208,
  "lat": 13.7049003,
  "lon": 100.5591250,
  "tags": {
    "internet_access": "wlan",
    "internet_access:fee": "no",
    "name": "Liliput Bangkachao",
    "tourism": "hotel"
  }
},
{
  "type": "node",
  "id": 7226467985,
  "lat": 13.7442618,
  "lon": 100.4917791,
  "tags": {
    "name:de": "Riva Arun",
    "name:en": "Riva Arun",
    "tourism": "hotel"
  }
},
{
  "type": "node",
  "id": 7247596286,
  "lat": 13.7376383,
  "lon": 100.5664949,
  "tags": {
    "name": "The Quarter Phromphong by UHG",
    "tourism": "hotel"
  }
},
{
  "type": "node",
  "id": 7296196276,
  "lat": 13.7217178,
  "lon": 100.5891423,
  "tags": {
    "name": "Aravinda Living Home",
    "tourism": "hotel"
  }
},
{
  "type": "node",
  "id": 7676727385,
  "lat": 13.7369301,
  "lon": 100.5757248,
  "tags": {
    "name:en": "The Quatier Hotel",
    "tourism": "hotel"
  }
},
{
  "type": "node",
  "id": 7791651369,
  "lat": 13.7387706,
  "lon": 100.5486207,
  "tags": {
    "addr:district": "ปทุมวัน",
    "addr:housenumber": "87/3",
    "addr:postcode": "10330",
    "addr:province": "กรุงเทพมหานคร",
    "addr:street": "ถนนวิทยุ",
    "addr:subdistrict": "ลุมพินี",
    "brand": "Conrad",
    "brand:wikidata": "Q855525",
    "email": "bkkci.reservations@conradhotels.com",
    "internet_access": "yes",
    "internet_access:fee": "yes",
    "name": "Conrad Bangkok Residences",
    "name:en": "Conrad Bangkok Residences",
    "name:th": "คอนราด แบ็งคอก เรสซิเดนซ์",
    "operator": "Hilton",
    "phone": "+66 2 690 9555",
    "rooms": "109",
    "stars": "5",
    "start_date": "2003-03",
    "tourism": "hotel",
    "website": "https://www.hilton.com/en/hotels/bkkcici-conrad-bangkok/residences/",
    "wikidata": "Q98090542"
  }
},
{
  "type": "node",
  "id": 8092544717,
  "lat": 13.7339051,
  "lon": 100.5636548,
  "tags": {
    "addr:housenumber": "392/35",
    "addr:postcode": "10110",
    "addr:street": "ถนนสุขุมวิท ซอย20",
    "internet_access": "wlan",
    "name:en": "Zen Hotel",
    "tourism": "hotel"
  }
},
{
  "type": "node",
  "id": 8344761290,
  "lat": 13.7487755,
  "lon": 100.5272401,
  "tags": {
    "facebook": "https://www.facebook.com/s3siam/",
    "name": "S3 Sayam",
    "name:en": "S3 Siam Bangkok Hotel",
    "name:th": "โรงแรม เอสทรี สยาม กรุงเทพ",
    "phone": "+66-99-252-2991;+66-99-252-6452",
    "tourism": "hotel",
    "website": "https://myroomth.com/s3siam/index-en"
  }
},
{
  "type": "node",
  "id": 8568510117,
  "lat": 13.7545501,
  "lon": 100.5400274,
  "tags": {
    "name:en": "Alsana hotel Abel",
    "tourism": "hotel"
  }
},
{
  "type": "node",
  "id": 8570769855,
  "lat": 13.8631500,
  "lon": 100.5037228,
  "tags": {
    "addr:city": "ตำบลบางกระสอ",
    "addr:housenumber": "888 หมู่ 8",
    "addr:postcode": "11000",
    "addr:street": "ซอยรัตนาธิเบศร์ 24",
    "name": "บ้านสวยรัตนาธิเบศร์ อพาร์ตเมนต์",
    "name:en": "Baansuay Rattanathibet Apartment",
    "tourism": "hotel"
  }
},
{
  "type": "node",
  "id": 9266997172,
  "lat": 13.7537983,
  "lon": 100.5377494,
  "tags": {
    "name": "First Pride Hotel Bangkok",
    "stars": "3",
    "tourism": "hotel"
  }
},
{
  "type": "node",
  "id": 9355592958,
  "lat": 13.7251411,
  "lon": 100.5312711,
  "tags": {
    "name": "Kessara",
    "tourism": "hotel"
  }
},
{
  "type": "node",
  "id": 9462533643,
  "lat": 13.7540370,
  "lon": 100.5376367,
  "tags": {
    "check_date": "2025-08-26",
    "name": "LemonTea Hotel",
    "tourism": "hotel"
  }
},
{
  "type": "node",
  "id": 9462538018,
  "lat": 13.7301156,
  "lon": 100.5283974,
  "tags": {
    "addr:housenumber": "142/5;142/4",
    "addr:street": "ซอยสุขสันต์",
    "name": "Every Surawong",
    "name:en": "Every Surawong",
    "tourism": "hotel"
  }
},
{
  "type": "node",
  "id": 9462574717,
  "lat": 13.7443673,
  "lon": 100.4919858,
  "tags": {
    "name:en": "The Royal ThaTien Village",
    "tourism": "hotel"
  }
},
{
  "type": "node",
  "id": 9462574817,
  "lat": 13.7559553,
  "lon": 100.5015672,
  "tags": {
    "addr:housenumber": "84",
    "addr:postcode": "10200",
    "addr:street": "ถนนดินสอ",
    "name": "โรงแรมดินสอมนต์",
    "name:en": "Dinsomon Hotel",
    "tourism": "hotel",
    "website": "https://www.dinsomonbangkok.top/"
  }
},
{
  "type": "node",
  "id": 9465287517,
  "lat": 13.7445939,
  "lon": 100.4921450,
  "tags": {
    "name:en": "The Royal ThaTien Village",
    "tourism": "hotel"
  }
},
{
  "type": "node",
  "id": 9550936517,
  "lat": 13.7364825,
  "lon": 100.5485896,
  "tags": {
    "name:en": "The Quart Ruamrudee by UHG",
    "tourism": "hotel"
  }
},
{
  "type": "node",
  "id": 9553926871,
  "lat": 13.7369293,
  "lon": 100.5166947,
  "tags": {
    "name": "โรงแรมบางกอก เซ็นเตอร์",
    "name:en": "Bangkok Centre Hotel",
    "name:th": "โรงแรมบางกอก เซ็นเตอร์",
    "tourism": "hotel"
  }
},
{
  "type": "node",
  "id": 9565709975,
  "lat": 13.7300870,
  "lon": 100.5684789,
  "tags": {
    "name": "Emporium Suites by Chatrium",
    "tourism": "hotel"
  }
},
{
  "type": "node",
  "id": 9598681775,
  "lat": 13.7512023,
  "lon": 100.5572146,
  "tags": {
    "brand": "Mercure",
    "brand:wikidata": "Q1709809",
    "brand:wikipedia": "en:Mercure (hotel)",
    "name": "โรงแรมเมอร์เคียว กรุงเทพ มักกะสัน",
    "name:en": "Mercure Bangkok Makkasan",
    "name:th": "โรงแรมเมอร์เคียว กรุงเทพ มักกะสัน",
    "tourism": "hotel"
  }
},
{
  "type": "node",
  "id": 9599444682,
  "lat": 13.7380611,
  "lon": 100.4854787,
  "tags": {
    "addr:city": "แขวงวัดอรุณ",
    "addr:postcode": "10600",
    "addr:street": "ถนนอิสรภาพ",
    "email": "kasayapi.reservation@gmail.com",
    "internet_access": "yes",
    "internet_access:fee": "customers",
    "name": "Kasayapi Hotel",
    "phone": "+66 2 891 1191",
    "rooms": "12",
    "tourism": "hotel",
    "website": "http://kasayapi.com/"
  }
},
{
  "type": "node",
  "id": 9667217217,
  "lat": 13.7850853,
  "lon": 100.5759154,
  "tags": {
    "name:en": "Rest Ratchada Hotel",
    "tourism": "hotel"
  }
},
{
  "type": "node",
  "id": 9797768017,
  "lat": 13.7782824,
  "lon": 100.5413314,
  "tags": {
    "name:en": "The Ritz Aree",
    "tourism": "hotel"
  }
},
{
  "type": "node",
  "id": 9913745744,
  "lat": 13.7365376,
  "lon": 100.5735098,
  "tags": {
    "addr:district": "วัฒนา",
    "addr:housenumber": "5/9",
    "addr:postcode": "10110",
    "addr:province": "กรุงเทพมหานคร",
    "addr:street": "ซอยพร้อมศรี 1",
    "addr:subdistrict": "คลองตันเหนือ",
    "brand": "Tapestry Collection by Hilton",
    "brand:wikidata": "Q109275422",
    "contact:facebook": "https://www.facebook.com/metropolissuites/",
    "contact:instagram": "https://www.instagram.com/metropolissuites/",
    "email": "bkkba_hotel@hilton.com",
    "internet_access": "yes",
    "internet_access:fee": "no",
    "name": "Metropolis Suites Bangkok, Tapestry Collection by Hilton",
    "phone": "+66 2 662 6262",
    "rooms": "88",
    "tourism": "hotel",
    "website": "https://www.hilton.com/en/hotels/bkkbaup-metropolis-suites-bangkok/"
  }
},
{
  "type": "node",
  "id": 9920846217,
  "lat": 13.7528233,
  "lon": 100.5298002,
  "tags": {
    "addr:housenumber": "374/234",
    "addr:postcode": "10400",
    "addr:street": "ซอยเพชรบุรี 12 ถนนเพชรบุรี",
    "email": "darayahostel@gmail.com",
    "name": "ดารายา โฮสเทล",
    "name:en": "daraya hostel",
    "phone": "0844577577",
    "tourism": "hotel"
  }
},
{
  "type": "node",
  "id": 9938279526,
  "lat": 13.7236017,
  "lon": 100.5295534,
  "tags": {
    "tourism": "hotel"
  }
},
{
  "type": "node",
  "id": 9939583421,
  "lat": 13.7897301,
  "lon": 100.5784245,
  "tags": {
    "name": "ต้นอ้อเพลส",
    "tourism": "hotel"
  }
},
{
  "type": "node",
  "id": 9939879917,
  "lat": 13.7396375,
  "lon": 100.5644778,
  "tags": {
    "name:en": "ADMIRAL",
    "tourism": "hotel"
  }
},
{
  "type": "node",
  "id": 9952337818,
  "lat": 13.7246034,
  "lon": 100.5249495,
  "tags": {
    "name:fr": "Furama Silom hôtel",
    "tourism": "hotel"
  }
},
{
  "type": "node",
  "id": 9966040721,
  "lat": 13.7292159,
  "lon": 100.5348208,
  "tags": {
    "internet_access": "wlan",
    "name:en": "D Varee Xpress Pula Silom",
    "opening_hours": "24/7",
    "tourism": "hotel"
  }
},
{
  "type": "node",
  "id": 9973696217,
  "lat": 13.7891644,
  "lon": 100.5489654,
  "tags": {
    "addr:housenumber": "40-42",
    "addr:postcode": "10400",
    "addr:street": "ถนนสุทธิสารวินิจฉัย",
    "email": "info@kencozy.com",
    "internet_access": "wlan",
    "name:en": "Kën",
    "opening_hours": "Mo-Su 08:00-20:00",
    "phone": "+66-2-013-6689;+66-95-979-7999;+66-81-206-6459",
    "tourism": "hotel",
    "website": "https://www.kencozy.com/"
  }
},
{
  "type": "node",
  "id": 10147739690,
  "lat": 13.7558161,
  "lon": 100.5302088,
  "tags": {
    "name": "Noursabah butique",
    "tourism": "hotel"
  }
},
{
  "type": "node",
  "id": 10210276422,
  "lat": 13.7576330,
  "lon": 100.5431931,
  "tags": {
    "name:en": "Hyde Park Hotel",
    "tourism": "hotel"
  }
},
{
  "type": "node",
  "id": 10219126417,
  "lat": 13.7338032,
  "lon": 100.5608986,
  "tags": {
    "air_conditioning": "yes",
    "name": "Jono Bangkok Asok Hotel",
    "tourism": "hotel"
  }
},
{
  "type": "node",
  "id": 10221021517,
  "lat": 13.7685254,
  "lon": 100.5742636,
  "tags": {
    "name": "mango 10 house",
    "tourism": "hotel"
  }
},
{
  "type": "node",
  "id": 10229572417,
  "lat": 13.6764617,
  "lon": 100.5361977,
  "tags": {
    "addr:housenumber": "1819/86",
    "addr:postcode": "10120",
    "addr:street": "ซอยสาธุประดิษฐ์ 57",
    "name": "ฟ้าใส โฮมสเตย์",
    "name:en": "Fahsai Homestay",
    "name:th": "ฟ้าใส โฮมสเตย์",
    "phone": "66898822896",
    "tourism": "hotel"
  }
},
{
  "type": "node",
  "id": 10245741816,
  "lat": 13.7814848,
  "lon": 100.5767030,
  "tags": {
    "addr:housenumber": "283",
    "addr:postcode": "10310",
    "addr:street": "Ratchadapisek Road",
    "internet_access": "wlan",
    "name:en": "HOOT Hostel & Ratchada",
    "tourism": "hotel"
  }
},
{
  "type": "node",
  "id": 10269361410,
  "lat": 13.7631619,
  "lon": 100.4992650,
  "tags": {
    "name:en": "Nouvo hotel",
    "tourism": "hotel"
  }
},
{
  "type": "node",
  "id": 10281602107,
  "lat": 13.7163090,
  "lon": 100.5315203,
  "tags": {
    "addr:housenumber": "36",
    "addr:province": "กรุงเทพมหานคร",
    "addr:street": "Narathiwat",
    "email": "JCKSATHORNHOTEL@JCKEVIN.COM",
    "name": "JC Kevin Sathorn Bangkok Hotel",
    "phone": "+66 2 210 9000",
    "tourism": "hotel",
    "website": "https://jckevin.com/"
  }
},
{
  "type": "node",
  "id": 10289216509,
  "lat": 13.7212185,
  "lon": 100.5762157,
  "tags": {
    "addr:street": "ซอยสุขุมวิท 36",
    "internet_access": "wlan",
    "name:en": "Oakwood Studios Sukhumvit Bangkok",
    "opening_hours": "24/7",
    "tourism": "hotel"
  }
},
{
  "type": "node",
  "id": 10303670609,
  "lat": 13.7215671,
  "lon": 100.5037627,
  "tags": {
    "name:en": "Hop Inn",
    "tourism": "hotel",
    "website": "https://www.hopinnhotel.com/th"
  }
},
{
  "type": "node",
  "id": 10309156098,
  "lat": 13.7335760,
  "lon": 100.5646837,
  "tags": {
    "name": "SU 22",
    "tourism": "hotel"
  }
},
{
  "type": "node",
  "id": 10538420760,
  "lat": 13.7402379,
  "lon": 100.5641173,
  "tags": {
    "addr:block": "Sukhumvit",
    "addr:block_number": "23",
    "addr:district": "Wattana",
    "addr:housenumber": "84",
    "addr:postcode": "10110",
    "addr:province": "กรุงเทพมหานคร",
    "internet_access": "wlan",
    "name": "Somerset Maison Asoke Bangkok",
    "stars": "4",
    "tourism": "hotel",
    "wheelchair": "yes"
  }
},
{
  "type": "node",
  "id": 10565244088,
  "lat": 13.7416511,
  "lon": 100.5114459,
  "tags": {
    "name": "ASAI Bangkok Chinatown",
    "phone": "+66 2 220 8999",
    "tourism": "hotel"
  }
},
{
  "type": "node",
  "id": 10572161874,
  "lat": 13.7387682,
  "lon": 100.5529661,
  "tags": {
    "addr:housenumber": "20/7-8",
    "addr:neighbourhood": "Khlong Toei",
    "addr:province": "กรุงเทพมหานคร",
    "addr:street": "Sukhumvit 4 Alley",
    "name": "Petals Inn",
    "tourism": "hotel"
  }
},
{
  "type": "node",
  "id": 10595665686,
  "lat": 13.7439186,
  "lon": 100.5566443,
  "tags": {
    "addr:city": "แขวงคลองเตยเหนือ",
    "addr:housenumber": "21/4",
    "addr:postcode": "10110",
    "addr:street": "ซอยสุขุมวิท 11",
    "brand": "La Petite Salil Hotels",
    "internet_access": "yes",
    "internet_access:fee": "customers",
    "name": "La Petite Salil Sukhumvit 11",
    "phone": "026513830",
    "tourism": "hotel",
    "website": "https://www.lapetitesalil.com/sukhumvit11/"
  }
},
{
  "type": "node",
  "id": 10672920905,
  "lat": 13.7237988,
  "lon": 100.5483375,
  "tags": {
    "addr:housenumber": "17",
    "addr:postcode": "10120",
    "addr:street": "ซอยงามดูพลี",
    "internet_access": "wlan",
    "name:en": "Pinnacle Lumphini Park Hotel",
    "phone": "+6622870111",
    "tourism": "hotel"
  }
},
{
  "type": "node",
  "id": 10687263605,
  "lat": 13.7533337,
  "lon": 100.5372313,
  "tags": {
    "name:en": "Micro Hostel",
    "survey:date": "2023-02-23",
    "tourism": "hotel"
  }
},
{
  "type": "node",
  "id": 10709321148,
  "lat": 13.7417793,
  "lon": 100.5143824,
  "tags": {
    "addr:housenumber": "40/42",
    "addr:street": "Soi Phantha Chit 2",
    "name": "La Locanda",
    "tourism": "hotel"
  }
},
{
  "type": "node",
  "id": 10716503205,
  "lat": 13.7338802,
  "lon": 100.5677747,
  "tags": {
    "internet_access": "wlan",
    "name": "Orion Rooms Sukhumvit 33",
    "tourism": "hotel"
  }
},
{
  "type": "node",
  "id": 10722098605,
  "lat": 13.7219082,
  "lon": 100.4498874,
  "tags": {
    "addr:housenumber": "114",
    "addr:postcode": "10160",
    "addr:street": "Phet Kasem Soi 42",
    "name:en": "Sirikarn Apartment",
    "tourism": "hotel"
  }
},
{
  "type": "node",
  "id": 10727096905,
  "lat": 13.7563740,
  "lon": 100.5347270,
  "tags": {
    "addr:street": "ซอยโกลิต",
    "name": "Hotel Thomas",
    "tourism": "hotel"
  }
},
{
  "type": "node",
  "id": 10831997505,
  "lat": 13.7615260,
  "lon": 100.5011485,
  "tags": {
    "addr:housenumber": "55/8",
    "addr:street": "ตรอกบ้านพานถม",
    "name": "Lilit Bang Lumphu Hotel",
    "name:en": "Lilit Bang Lumphu Hotel",
    "tourism": "hotel"
  }
},