{
  "version": 0.6,
  "generator": "Overpass API 0.7.62.11 87bfad18",
  "osm3s": {
    "timestamp_osm_base": "2026-04-01T09:36:36Z",
    "copyright": "The data included in this document is from www.openstreetmap.org. The data is made available under ODbL."
  },
  "elements": [

{
  "type": "node",
  "id": 4302903880,
  "lat": 1.2796267,
  "lon": 103.8400076,
  "tags": {
    "addr:city": "Singapore",
    "addr:country": "SG",
    "addr:housenumber": "333",
    "addr:postcode": "088765",
    "addr:street": "New Bridge Road",
    "name": "Dorsett Singapore",
    "tourism": "hotel",
    "website": "https://www.dorsetthotels.com/singapore"
  }
},
{
  "type": "node",
  "id": 4302903882,
  "lat": 1.2940043,
  "lon": 103.8539661,
  "tags": {
    "addr:city": "Singapore",
    "addr:country": "SG",
    "addr:housenumber": "80",
    "addr:postcode": "189560",
    "addr:street": "Bras Basah Road",
    "brand": "Fairmont",
    "brand:wikidata": "Q1393345",
    "level": "0",
    "name": "Fairmont",
    "toilets:wheelchair": "yes",
    "tourism": "hotel",
    "website": "https://www.fairmont.com/singapore",
    "wheelchair": "yes"
  }
},
{
  "type": "node",
  "id": 4302903886,
  "lat": 1.3116463,
  "lon": 103.8549745,
  "tags": {
    "addr:city": "Singapore",
    "addr:country": "SG",
    "addr:housenumber": "2",
    "addr:postcode": "218842",
    "addr:street": "Owen Road",
    "brand": "Habyt",
    "email": "owenhouse@habyt.com",
    "internet_access": "wlan",
    "internet_access:fee": "customers",
    "name": "Owen House by Habyt",
    "phone": "+65 8858 6202",
    "rooms": "106",
    "tourism": "hotel",
    "website": "https://owenhouse.habyt.com/"
  }
},
{
  "type": "node",
  "id": 4302903887,
  "lat": 1.3149698,
  "lon": 103.8910396,
  "tags": {
    "addr:city": "Singapore",
    "addr:country": "SG",
    "addr:housenumber": "757",
    "addr:postcode": "389659",
    "addr:street": "Geylang Road",
    "name": "Four Chain View Hotel",
    "source": "Kaart Ground Survey 2017",
    "tourism": "hotel",
    "website": "www.fourchain.com.sg",
    "wheelchair": "yes",
    "wikidata": "Q115969276"
  }
},
{
  "type": "node",
  "id": 4302903888,
  "lat": 1.3052102,
  "lon": 103.8286527,
  "tags": {
    "addr:city": "Singapore",
    "addr:country": "SG",
    "addr:housenumber": "190",
    "addr:postcode": "248646",
    "addr:street": "Orchard Boulevard",
    "brand": "Four Seasons",
    "brand:wikidata": "Q1424786",
    "name": "Four Seasons Hotel",
    "tourism": "hotel",
    "website": "https://www.fourseasons.com/singapore"
  }
},
{
  "type": "node",
  "id": 4302905381,
  "lat": 1.3045445,
  "lon": 103.8529987,
  "tags": {
    "addr:city": "Singapore",
    "addr:country": "SG",
    "addr:housenumber": "6 & 7",
    "addr:postcode": "208127",
    "addr:street": "Perak Road",
    "name": "Adamson Lodge",
    "tourism": "hotel",
    "website": "www.adamsonlodge.com"
  }
},
{
  "type": "node",
  "id": 4302905382,
  "lat": 1.2965141,
  "lon": 103.8553424,
  "tags": {
    "addr:city": "Singapore",
    "addr:country": "SG",
    "addr:housenumber": "13",
    "addr:postcode": "188592",
    "addr:street": "Purvis Street",
    "name": "Adonis Hotel",
    "tourism": "hotel",
    "website": "www.hoteladonis.com"
  }
},
{
  "type": "node",
  "id": 4302905384,
  "lat": 1.2521753,
  "lon": 103.8221922,
  "tags": {
    "addr:city": "Singapore",
    "addr:country": "SG",
    "addr:housenumber": "1",
    "addr:postcode": "099394",
    "addr:street": "Larkhill Road",
    "name": "Amara Sanctuary Resort, Sentosa",
    "tourism": "hotel",
    "website": "www.amarasanctuary.com"
  }
},
{
  "type": "node",
  "id": 4302905385,
  "lat": 1.2749407,
  "lon": 103.8436571,
  "tags": {
    "addr:city": "Singapore",
    "addr:country": "SG",
    "addr:housenumber": "165",
    "addr:postcode": "088539",
    "addr:street": "Tanjong Pagar Road",
    "name": "Amara Singapore",
    "tourism": "hotel",
    "website": "https://www.amarahotels.com/"
  }
},
{
  "type": "node",
  "id": 4302905386,
  "lat": 1.2967549,
  "lon": 103.8558647,
  "tags": {
    "addr:city": "Singapore",
    "addr:country": "SG",
    "addr:housenumber": "21",
    "addr:postcode": "188931",
    "addr:street": "Middle Road",
    "name": "ST Signature Coliving Hostel",
    "tourism": "hotel",
    "wheelchair": "yes"
  }
},
{
  "type": "node",
  "id": 4302905812,
  "lat": 1.2875417,
  "lon": 103.8481413,
  "tags": {
    "addr:city": "Singapore",
    "addr:country": "SG",
    "addr:housenumber": "58",
    "addr:postcode": "058689",
    "addr:street": "South Bridge Road",
    "brand": "Hotel Clover",
    "name": "Hotel Clover (The Arts)",
    "tourism": "hotel",
    "website": "https://www.hotelcloverthearts.com/",
    "wikidata": "Q115968303"
  }
},
{
  "type": "node",
  "id": 4302905814,
  "lat": 1.2883473,
  "lon": 103.8478558,
  "tags": {
    "addr:city": "Singapore",
    "addr:country": "SG",
    "addr:housenumber": "16",
    "addr:postcode": "059905",
    "addr:street": "Carpenter Street",
    "check_date": "2023-11-06",
    "name": "Hotel Conforto",
    "tourism": "hotel",
    "wheelchair": "no",
    "wikidata": "Q111429448"
  }
},
{
  "type": "node",
  "id": 4302905816,
  "lat": 1.3116336,
  "lon": 103.8826879,
  "tags": {
    "addr:city": "Singapore",
    "addr:country": "SG",
    "addr:housenumber": "22",
    "addr:postcode": "399541",
    "addr:street": "Jalan Molek",
    "name": "Fuji",
    "tourism": "hotel"
  }
},
{
  "type": "node",
  "id": 4302905819,
  "lat": 1.3115415,
  "lon": 103.8615212,
  "tags": {
    "addr:city": "Singapore",
    "addr:country": "SG",
    "addr:housenumber": "40",
    "addr:postcode": "209210",
    "addr:street": "Hamilton Road",
    "air_conditioning": "yes",
    "check_date": "2023-02-07",
    "name": "Harbour Ville Hotel Hamilton",
    "tourism": "hotel",
    "website": "www.hotelhamilton.com.sg",
    "wikidata": "Q112009550"
  }
},
{
  "type": "node",
  "id": 4302905820,
  "lat": 1.3007018,
  "lon": 103.8388997,
  "tags": {
    "addr:city": "Singapore",
    "addr:country": "SG",
    "addr:housenumber": "277",
    "addr:postcode": "238858",
    "addr:street": "Orchard Road",
    "addr:unit": "#10-01",
    "alt_name": "Hotel Jen Orchardgateway Singapore",
    "alt_name2": "Jen Hotel by Shangri-La",
    "brand": "Jen by Shangri-La",
    "contact:email": "hjog@hoteljen.com",
    "email": "singaporeorchardgateway@hoteljen.com",
    "name": "Hotel Jen (Orchardgateway)",
    "operator": "Shangri-La Hotels and Resorts",
    "phone": "+65 6708 8888",
    "rooms": "499",
    "stars": "4",
    "tourism": "hotel",
    "website": "https://www.hoteljen.com/singapore/orchardgateway/",
    "wheelchair": "yes"
  }
},
{
  "type": "node",
  "id": 4302905821,
  "lat": 1.3042705,
  "lon": 103.8239124,
  "tags": {
    "addr:city": "Singapore",
    "addr:country": "SG",
    "addr:housenumber": "1A",
    "addr:postcode": "249716",
    "addr:street": "Cuscaden Road",
    "brand": "Jen by Shangri-La",
    "email": "singaporetanglin@hoteljen.com",
    "name": "JEN Singapore Tanglin",
    "operator": "Shangri-La Hotels and Resorts",
    "phone": "+65 67382222",
    "tourism": "hotel",
    "website": "https://www.shangri-la.com/en/hotels/jen/singapore/tanglin/"
  }
},
{
  "type": "node",
  "id": 4302905822,
  "lat": 1.2965218,
  "lon": 103.8554053,
  "tags": {
    "addr:city": "Singapore",
    "addr:country": "SG",
    "addr:housenumber": "14",
    "addr:postcode": "188593",
    "addr:street": "Purvis Street",
    "name": "Hotel Kai",
    "tourism": "hotel",
    "website": "www.hotelkai.com"
  }
},
{
  "type": "node",
  "id": 4302905825,
  "lat": 1.3027514,
  "lon": 103.8582753,
  "tags": {
    "addr:city": "Singapore",
    "addr:country": "SG",
    "addr:housenumber": "11",
    "addr:postcode": "199143",
    "addr:street": "Jalan Pinang",
    "name": "Hotel Nuve",
    "tourism": "hotel",
    "website": "https://www.hotelnuve.com/"
  }
},
{
  "type": "node",
  "id": 4302905828,
  "lat": 1.3168306,
  "lon": 103.8418595,
  "tags": {
    "addr:city": "Singapore",
    "addr:country": "SG",
    "addr:housenumber": "36",
    "addr:postcode": "307964",
    "addr:street": "Newton Road",
    "name": "Hotel Royal",
    "tourism": "hotel",
    "website": "https://www.hotelroyal.com/"
  }
},
{
  "type": "node",
  "id": 4302905829,
  "lat": 1.3109556,
  "lon": 103.8617436,
  "tags": {
    "addr:city": "Singapore",
    "addr:country": "SG",
    "addr:housenumber": "26",
    "addr:postcode": "209854",
    "addr:street": "Cavan Road",
    "name": "Hotel Snow",
    "tourism": "hotel"
  }
},
{
  "type": "node",
  "id": 4302905830,
  "lat": 1.3013394,
  "lon": 103.8424247,
  "tags": {
    "addr:city": "Singapore",
    "addr:country": "SG",
    "addr:housenumber": "15",
    "addr:postcode": "228750",
    "addr:street": "Kramat Road",
    "name": "Hotel Supreme",
    "tourism": "hotel",
    "website": "www.supremeh.com.sg"
  }
},
{
  "type": "node",
  "id": 4302905831,
  "lat": 1.3070191,
  "lon": 103.8583028,
  "tags": {
    "addr:city": "Singapore",
    "addr:country": "SG",
    "addr:housenumber": "39",
    "addr:postcode": "207630",
    "addr:street": "Syed Alwi Road",
    "name": "The Vagabond Club, Singapore, a Tribute Portfolio Hotel",
    "rooms": "41",
    "tourism": "hotel",
    "website": "https://hotelvagabondsingapore.com/"
  }
},
{
  "type": "node",
  "id": 4302905833,
  "lat": 1.3139645,
  "lon": 103.8875843,
  "tags": {
    "addr:city": "Singapore",
    "addr:country": "SG",
    "addr:housenumber": "586A",
    "addr:postcode": "389525",
    "addr:street": "Geylang Road",
    "name": "Hup Hoe Hotel",
    "source": "Kaart Ground Survey 2017",
    "tourism": "hotel"
  }
},
{
  "type": "node",
  "id": 4302905834,
  "lat": 1.3009632,
  "lon": 103.8524227,
  "tags": {
    "addr:city": "Singapore",
    "addr:country": "SG",
    "addr:housenumber": "170",
    "addr:postcode": "189657",
    "addr:street": "Bencoolen Street",
    "brand": "Ibis",
    "brand:wikidata": "Q920166",
    "brand:wikipedia": "en:Ibis (hotel)",
    "email": "h6657@accor.com",
    "name": "Ibis (Bencoolen)",
    "phone": "+65 6593 2888",
    "tourism": "hotel",
    "website": "https://all.accor.com/hotel/6657/index.en.shtml",
    "wheelchair": "yes"
  }
},
{
  "type": "node",
  "id": 4302905836,
  "lat": 1.3317706,
  "lon": 103.8792945,
  "tags": {
    "addr:city": "Singapore",
    "addr:country": "SG",
    "addr:housenumber": "401",
    "addr:postcode": "368125",
    "addr:street": "Macpherson Road",
    "air_conditioning": "yes",
    "brand": "Ibis Styles",
    "brand:wikidata": "Q3147425",
    "internet_access": "wlan",
    "internet_access:fee": "customers",
    "name": "Ibis Styles Singapore On Macpherson",
    "reservation": "yes",
    "rooms": "298",
    "smoking": "isolated",
    "source": "Kaart Ground Survey 2017",
    "tourism": "hotel",
    "website": "https://www.accorhotels.com/9411"
  }
},
{
  "type": "node",
  "id": 4302905839,
  "lat": 1.3076976,
  "lon": 103.8585205,
  "tags": {
    "addr:city": "Singapore",
    "addr:country": "SG",
    "addr:housenumber": "8",
    "addr:postcode": "207606",
    "addr:street": "Townshend Road",
    "name": "J8 Hotel",
    "tourism": "hotel",
    "website": "https://www.j8hotel.com/"
  }
},
{
  "type": "node",
  "id": 4302905840,
  "lat": 1.3117118,
  "lon": 103.8827759,
  "tags": {
    "addr:city": "Singapore",
    "addr:country": "SG",
    "addr:housenumber": "18",
    "addr:postcode": "399535",
    "addr:street": "Jalan Molek",
    "name": "Jade",
    "tourism": "hotel"
  }
},
{
  "type": "node",
  "id": 4302905843,
  "lat": 1.3102273,
  "lon": 103.8788067,
  "tags": {
    "addr:city": "Singapore",
    "addr:country": "SG",
    "addr:housenumber": "33",
    "addr:postcode": "399007",
    "addr:street": "Lorong 12 Geylang",
    "name": "Jin Dong Hotel",
    "tourism": "hotel"
  }
},
{
  "type": "node",
  "id": 4302905844,
  "lat": 1.2828972,
  "lon": 103.8439597,
  "tags": {
    "addr:city": "Singapore",
    "addr:country": "SG",
    "addr:housenumber": "20",
    "addr:postcode": "058479",
    "addr:street": "Trengganu Street",
    "addr:unit": "#03-01",
    "email": "reservation@hotel1888.com.sg",
    "name": "Hotel 1888 Collection",
    "phone": "+65 69101888",
    "tourism": "hotel",
    "website": "http://www.hotel1888.com.sg/"
  }
},
{
  "type": "node",
  "id": 4302905846,
  "lat": 1.3119092,
  "lon": 103.8602089,
  "tags": {
    "addr:city": "Singapore",
    "addr:country": "SG",
    "addr:housenumber": "153A, 153B & 155B",
    "addr:postcode": "207566",
    "addr:street": "Tyrwhitt Road",
    "email": "booking@pinehostel.com",
    "name": "Just Inn Pine",
    "tourism": "hotel"
  }
},
{
  "type": "node",
  "id": 4302905847,
  "lat": 1.3132243,
  "lon": 103.8596995,
  "tags": {
    "addr:city": "Singapore",
    "addr:country": "SG",
    "addr:housenumber": "383",
    "addr:postcode": "209001",
    "addr:street": "Jalan Besar",
    "check_date": "2024-10-24",
    "name": "Kam Leng Hotel",
    "tourism": "hotel",
    "website": "www.kamleng.com"
  }
},
{
  "type": "node",
  "id": 4302905849,
  "lat": 1.3075463,
  "lon": 103.8508256,
  "tags": {
    "addr:city": "Singapore",
    "addr:country": "SG",
    "addr:housenumber": "54-62",
    "addr:postcode": "219178",
    "addr:street": "Kerbau Road",
    "name": "Kerbau Hotel",
    "tourism": "hotel"
  }
},
{
  "type": "node",
  "id": 4302905850,
  "lat": 1.3114355,
  "lon": 103.8762403,
  "tags": {
    "addr:city": "Singapore",
    "addr:country": "SG",
    "addr:housenumber": "4",
    "addr:postcode": "399166",
    "addr:street": "Lorong 6 Geylang",
    "name": "Kim Tian (Star) Hotel",
    "tourism": "hotel"
  }
},
{
  "type": "node",
  "id": 4302905851,
  "lat": 1.3101616,
  "lon": 103.8762027,
  "tags": {
    "addr:city": "Singapore",
    "addr:country": "SG",
    "addr:housenumber": "29",
    "addr:postcode": "399281",
    "addr:street": "Lorong 4 Geylang",
    "name": "Kim Tian Hotel (Han)",
    "tourism": "hotel"
  }
},
{
  "type": "node",
  "id": 4302905854,
  "lat": 1.3112511,
  "lon": 103.8778352,
  "tags": {
    "addr:city": "Singapore",
    "addr:country": "SG",
    "addr:housenumber": "17",
    "addr:postcode": "399050",
    "addr:street": "Lorong 10 Geylang",
    "name": "La Mode (Sophia)",
    "phone": "+6567411423",
    "stars": "1",
    "tourism": "hotel",
    "website": "https://lamodehotel.blogspot.com/"
  }
},
{
  "type": "node",
  "id": 4302905855,
  "lat": 1.3128524,
  "lon": 103.8828778,
  "tags": {
    "addr:city": "Singapore",
    "addr:country": "SG",
    "addr:housenumber": "424",
    "addr:postcode": "389395",
    "addr:street": "Geylang Road",
    "name": "Lai Ming Hotel Cosmoland",
    "tourism": "hotel",
    "website": "https://www.laiminghotel.com.sg/"
  }
},
{
  "type": "node",
  "id": 4302905857,
  "lat": 1.3087862,
  "lon": 103.9120795,
  "tags": {
    "addr:city": "Singapore",
    "addr:country": "SG",
    "addr:housenumber": "400",
    "addr:postcode": "428996",
    "addr:street": "East Coast Road",
    "contact:email": "contact@snooze-inn.com",
    "contact:phone": "+65 6665 5511",
    "contact:website": "https://snooze-inn.com/",
    "contact:whatsapp": "+65 8950 0269",
    "internet_access": "wlan",
    "name": "The Snooze Hotel",
    "official_name": "The Snooze Hotel @ Marine Parade",
    "source": "Kaart Ground Survey 2017",
    "tourism": "hotel",
    "wheelchair": "yes"
  }
},
{
  "type": "node",
  "id": 4302905859,
  "lat": 1.3118188,
  "lon": 103.8771017,
  "tags": {
    "addr:city": "Singapore",
    "addr:country": "SG",
    "addr:housenumber": "1",
    "addr:postcode": "399073",
    "addr:street": "Lorong 8 Geylang",
    "name": "Lex",
    "phone": "+6567452234",
    "stars": "1",
    "tourism": "hotel",
    "website": "https://lexhotelsingapore.blogspot.com/"
  }
},
{
  "type": "node",
  "id": 4302905860,
  "lat": 1.2848724,
  "lon": 103.8342907,
  "tags": {
    "addr:city": "Singapore",
    "addr:country": "SG",
    "addr:housenumber": "50 & 51",
    "addr:postcode": "168733",
    "addr:street": "Tiong Bahru Road",
    "name": "Link Hotel",
    "tourism": "hotel",
    "website": "https://www.linkhotel.com.sg/"
  }
},
{
  "type": "node",
  "id": 4302905861,
  "lat": 1.2972636,
  "lon": 103.8403659,
  "tags": {
    "addr:city": "Singapore",
    "addr:country": "SG",
    "addr:housenumber": "2",
    "addr:postcode": "239091",
    "addr:street": "Lloyd Road",
    "name": "Lloyd's Inn",
    "tourism": "hotel",
    "website": "https://www.lloydsinn.com/",
    "wikidata": "Q111399623"
  }
},
{
  "type": "node",
  "id": 4302905862,
  "lat": 1.2806192,
  "lon": 103.8415424,
  "tags": {
    "addr:city": "Singapore",
    "addr:country": "SG",
    "addr:housenumber": "55",
    "addr:postcode": "089158",
    "addr:street": "Keong Saik Road",
    "name": "Naumi Liora",
    "tourism": "hotel",
    "website": "www.naumiliora.com"
  }
},
{
  "type": "node",
  "id": 4302905863,
  "lat": 1.2958125,
  "lon": 103.8551441,
  "tags": {
    "addr:city": "Singapore",
    "addr:country": "SG",
    "addr:housenumber": "41",
    "addr:postcode": "188396",
    "addr:street": "Seah Street",
    "name": "Naumi",
    "tourism": "hotel",
    "website": "www.naumihotel.com"
  }
},
{
  "type": "node",
  "id": 4302905864,
  "lat": 1.2855643,
  "lon": 103.8340759,
  "tags": {
    "addr:city": "Singapore",
    "addr:country": "SG",
    "addr:housenumber": "3",
    "addr:postcode": "168891",
    "addr:street": "Seng Poh Road",
    "check_date": "2025-10-20",
    "name": "New Cape Inn",
    "tourism": "hotel",
    "website": "www.capeinn-singapore.com"
  }
},
{
  "type": "node",
  "id": 4302905865,
  "lat": 1.3132358,
  "lon": 103.8817472,
  "tags": {
    "addr:city": "Singapore",
    "addr:country": "SG",
    "addr:housenumber": "443A",
    "addr:postcode": "389403",
    "addr:street": "Geylang Road",
    "name": "New Cathay Hotel (Geylang)",
    "tourism": "hotel"
  }
},
{
  "type": "node",
  "id": 4302905866,
  "lat": 1.3115829,
  "lon": 103.8777715,
  "tags": {
    "addr:city": "Singapore",
    "addr:country": "SG",
    "addr:housenumber": "9",
    "addr:postcode": "399042",
    "addr:street": "Lorong 10 Geylang",
    "check_date": "2025-05-28",
    "name": "JXIN Hotel",
    "tourism": "hotel"
  }
},
{
  "type": "node",
  "id": 4302905867,
  "lat": 1.2793051,
  "lon": 103.8403624,
  "tags": {
    "addr:city": "Singapore",
    "addr:country": "SG",
    "addr:housenumber": "31-37",
    "addr:postcode": "089845",
    "addr:street": "Bukit Pasoh Road",
    "name": "New Majestic Hotel",
    "tourism": "hotel",
    "website": "https://www.newmajestichotel.com/",
    "wikidata": "Q7009975",
    "wikipedia": "en:New Majestic Hotel"
  }
},
{
  "type": "node",
  "id": 4302905869,
  "lat": 1.3102017,
  "lon": 103.8582584,
  "tags": {
    "addr:city": "Singapore",
    "addr:country": "SG",
    "addr:housenumber": "259A-D",
    "addr:postcode": "208934",
    "addr:street": "Jalan Besar",
    "check_date": "2024-01-28",
    "name": "Dream Lodge",
    "tourism": "hotel"
  }
},
{
  "type": "node",
  "id": 4302905870,
  "lat": 1.2851650,
  "lon": 103.8335903,
  "tags": {
    "addr:city": "Singapore",
    "addr:country": "SG",
    "addr:housenumber": "77",
    "addr:postcode": "168727",
    "addr:street": "Tiong Bahru Road",
    "check_date": "2024-06-04",
    "name": "Nostalgia Hotel",
    "tourism": "hotel",
    "website": "https://www.hotelnostalgia.com.sg/"
  }
},
{
  "type": "node",
  "id": 4302905873,
  "lat": 1.3200301,
  "lon": 103.8447824,
  "tags": {
    "addr:city": "Singapore",
    "addr:country": "SG",
    "addr:housenumber": "8",
    "addr:postcode": "307470",
    "addr:street": "Sinaran Drive",
    "check_date": "2026-01-19",
    "name": "Oasia Hotel",
    "tourism": "hotel",
    "website": "https://www.stayfareast.com/"
  }
},
{
  "type": "node",
  "id": 4302905874,
  "lat": 1.3129505,
  "lon": 103.8539713,
  "tags": {
    "addr:city": "Singapore",
    "addr:country": "SG",
    "addr:housenumber": "1",
    "addr:postcode": "217562",
    "addr:street": "Farrer Park Station Road",
    "air_conditioning": "yes",
    "internet_access": "yes",
    "internet_access:fee": "yes",
    "name": "One Farrer Hotel & Spa",
    "payment:NETS_Debit": "yes",
    "payment:credit_cards": "yes",
    "payment:mastercard": "yes",
    "payment:mastercard_paypass": "yes",
    "payment:visa": "yes",
    "payment:visa_paywave": "yes",
    "tourism": "hotel",
    "website": "https://www.onefarrer.com/"
  }
},
{
  "type": "node",
  "id": 4302905876,
  "lat": 1.3076686,
  "lon": 103.8281644,
  "tags": {
    "addr:city": "Singapore",
    "addr:country": "SG",
    "addr:housenumber": "442",
    "addr:postcode": "238879",
    "addr:street": "Orchard Road",
    "name": "Orchard Hotel Singapore",
    "tourism": "hotel",
    "website": "https://www.millenniumhotels.com.sg/"
  }
},
{
  "type": "node",
  "id": 4302905877,
  "lat": 1.3065524,
  "lon": 103.8278105,
  "tags": {
    "addr:city": "Singapore",
    "addr:country": "SG",
    "addr:housenumber": "1",
    "addr:postcode": "247905",
    "addr:street": "Tanglin Road",
    "check_date": "2024-05-22",
    "name": "Orchard RendezVous Hotel",
    "name:my": "ဥယျာဉ်ခြံချီတက်ပွဲဟိုတယ်",
    "operator": "Far East Hospitality",
    "tourism": "hotel",
    "website": "https://www.rendezvoushotels.com.sg/en",
    "wheelchair": "yes"
  }
},
{
  "type": "node",
  "id": 4302905878,
  "lat": 1.2769196,
  "lon": 103.8440930,
  "tags": {
    "addr:city": "Singapore",
    "addr:country": "SG",
    "addr:housenumber": "1",
    "addr:postcode": "078867",
    "addr:street": "Tras Link",
    "name": "Orchid Hotel",
    "name:zh": "胡姬酒店",
    "stars": "4",
    "tourism": "hotel",
    "website": "https://www.orchidhotel.com.sg/"
  }
},
{
  "type": "node",
  "id": 4302905880,
  "lat": 1.3112228,
  "lon": 103.8775743,
  "tags": {
    "addr:city": "Singapore",
    "addr:country": "SG",
    "addr:housenumber": "14",
    "addr:postcode": "399047",
    "addr:street": "Lorong 10 Geylang",
    "internet_access": "wlan",
    "internet_access:fee": "customers",
    "name": "K Hotel 14",
    "stars": "2",
    "tourism": "hotel"
  }
},
{
  "type": "node",
  "id": 4302905881,
  "lat": 1.3113201,
  "lon": 103.8775538,
  "tags": {
    "addr:city": "Singapore",
    "addr:country": "SG",
    "addr:housenumber": "12",
    "addr:postcode": "399045",
    "addr:street": "Lorong 10 Geylang",
    "internet_access": "wlan",
    "internet_access:fee": "customers",
    "name": "K Hotel 12",
    "stars": "2",
    "tourism": "hotel",
    "wikidata": "Q111429512"
  }
},
{
  "type": "node",
  "id": 4302905885,
  "lat": 1.3121924,
  "lon": 103.8606714,
  "tags": {
    "addr:city": "Singapore",
    "addr:country": "SG",
    "addr:housenumber": "165",
    "addr:postcode": "207569",
    "addr:street": "Tyrwhitt Road",
    "brand": "Mercure",
    "check_date": "2025-05-06",
    "name": "Mercure Singapore Tyrwhitt",
    "rooms": "270",
    "tourism": "hotel"
  }
},
{
  "type": "node",
  "id": 4302905889,
  "lat": 1.2830004,
  "lon": 103.8486454,
  "tags": {
    "addr:city": "Singapore",
    "addr:country": "SG",
    "addr:housenumber": "76",
    "addr:postcode": "048464",
    "addr:street": "Telok Ayer Street",
    "check_date": "2025-11-03",
    "name": "Amoy Hotel",
    "tourism": "hotel",
    "website": "https://www.stayfareast.com/",
    "wikidata": "Q4845494",
    "wikipedia": "en:Fuk Tak Chi Temple"
  }
},
{
  "type": "node",
  "id": 4302905890,
  "lat": 1.3139641,
  "lon": 103.8778719,
  "tags": {
    "addr:city": "Singapore",
    "addr:country": "SG",
    "addr:housenumber": "112",
    "addr:postcode": "387436",
    "addr:street": "Sims Avenue",
    "addr:unit": "#01-01",
    "name": "Amrise Hotel",
    "tourism": "hotel",
    "website": "https://amrisehotel.com/",
    "wikidata": "Q111429506"
  }
},
{
  "type": "node",
  "id": 4302905894,
  "lat": 1.3123789,
  "lon": 103.8613002,
  "tags": {
    "addr:city": "Singapore",
    "addr:country": "SG",
    "addr:housenumber": "139",
    "addr:postcode": "338739",
    "addr:street": "Lavender Street",
    "brand": "Aqueen",
    "check_date": "2026-01-21",
    "name": "Aqueen Hotel (Lavender)",
    "tourism": "hotel",
    "website": "https://www.aqueenhotels.com/"
  }
},
{
  "type": "node",
  "id": 4302905896,
  "lat": 1.3114598,
  "lon": 103.8613295,
  "tags": {
    "addr:city": "Singapore",
    "addr:country": "SG",
    "addr:housenumber": "32",
    "addr:postcode": "209201",
    "addr:street": "Hamilton Road",
    "check_date": "2024-05-30",
    "name": "Arcadia Hotel",
    "tourism": "hotel",
    "website": "www.arcadiahotel.com.sg",
    "wikidata": "Q111429499"
  }
},
{
  "type": "node",
  "id": 4302905897,
  "lat": 1.3089820,
  "lon": 103.8559161,
  "tags": {
    "addr:city": "Singapore",
    "addr:country": "SG",
    "addr:housenumber": "83",
    "addr:postcode": "207662",
    "addr:street": "Syed Alwi Road",
    "name": "Arianna Hotel",
    "tourism": "hotel",
    "website": "www.ariannahotel.com.sg"
  }
},
{
  "type": "node",
  "id": 4302905899,
  "lat": 1.3120647,
  "lon": 103.8608539,
  "tags": {
    "addr:city": "Singapore",
    "addr:country": "SG",
    "addr:housenumber": "176",
    "addr:postcode": "207576",
    "addr:street": "Tyrwhitt Road",
    "name": "Arton Boutique Hotel",
    "tourism": "hotel",
    "website": "https://www.artonhotel.com/",
    "wikidata": "Q111429498"
  }
},
{
  "type": "node",
  "id": 4302905900,
  "lat": 1.2820846,
  "lon": 103.8515444,
  "tags": {
    "addr:city": "Singapore",
    "addr:country": "SG",
    "addr:housenumber": "2",
    "addr:postcode": "049247",
    "addr:street": "Finlayson Green",
    "name": "Ascott",
    "tourism": "hotel",
    "website": "https://www.the-ascott.com/",
    "wheelchair": "limited"
  }
},
{
  "type": "node",
  "id": 4302905901,
  "lat": 1.3085031,
  "lon": 103.8547255,
  "tags": {
    "addr:city": "Singapore",
    "addr:country": "SG",
    "addr:housenumber": "44 & 44A",
    "addr:postcode": "207995",
    "addr:street": "Rowell Road",
    "check_date": "2024-12-04",
    "name": "Asia Star Hotel",
    "tourism": "hotel",
    "website": "www.asiastarhotel.com"
  }
},
{
  "type": "node",
  "id": 4302905903,
  "lat": 1.2984534,
  "lon": 103.8557413,
  "tags": {
    "addr:city": "Singapore",
    "addr:country": "SG",
    "addr:housenumber": "490,492",
    "addr:postcode": "188736",
    "addr:street": "North Bridge Road",
    "internet_access": "wlan",
    "internet_access:fee": "customers",
    "level": "2",
    "name": "Backpacker Cozy Corner Guesthouse",
    "phone": "+65 8818 1868",
    "tourism": "hotel"
  }
},
{
  "type": "node",
  "id": 4302905904,
  "lat": 1.2834869,
  "lon": 103.8455614,
  "tags": {
    "addr:city": "Singapore",
    "addr:country": "SG",
    "addr:housenumber": "27",
    "addr:postcode": "059505",
    "addr:street": "Mosque Street",
    "brand": "Backpacker's",
    "name": "Backpacker's (Inn Chinatown 2)",
    "tourism": "hotel",
    "website": "https://richlodging.com/"
  }
},
{
  "type": "node",
  "id": 4302905905,
  "lat": 1.2837921,
  "lon": 103.8454769,
  "tags": {
    "addr:city": "Singapore",
    "addr:country": "SG",
    "addr:housenumber": "14",
    "addr:postcode": "058330",
    "addr:street": "Upper Cross Street",
    "brand": "Backpacker's",
    "name": "Backpacker's (Inn Chinatown 3)",
    "tourism": "hotel",
    "website": "https://richlodging.com/"
  }
},
{
  "type": "node",
  "id": 4302905906,
  "lat": 1.2835599,
  "lon": 103.8454074,
  "tags": {
    "addr:city": "Singapore",
    "addr:country": "SG",
    "addr:housenumber": "30A",
    "addr:postcode": "059508",
    "addr:street": "Mosque Street",
    "name": "Backpackers Inn Chinatown",
    "tourism": "hotel",
    "website": "https://richlodging.com/"
  }
},
{
  "type": "node",
  "id": 4302905907,
  "lat": 1.3103556,
  "lon": 103.8617102,
  "tags": {
    "addr:city": "Singapore",
    "addr:country": "SG",
    "addr:housenumber": "111J",
    "addr:postcode": "208559",
    "addr:street": "King George's Avenue",
    "email": "booking@bpsg.com.sg",
    "name": "Backpackers@sg",
    "phone": "+65 66832924",
    "tourism": "hotel",
    "website": "https://www.bpsg.com.sg/"
  }
},
{
  "type": "node",
  "id": 4302905910,
  "lat": 1.2984985,
  "lon": 103.8503677,
  "tags": {
    "addr:city": "Singapore",
    "addr:country": "SG",
    "addr:housenumber": "30",
    "addr:postcode": "189621",
    "addr:street": "Bencoolen Street",
    "check_date": "2024-05-10",
    "email": "reservations@30bencoolen.com.sg",
    "internet_access": "wlan",
    "name": "Local",
    "opening_hours": "24/7",
    "phone": "+6563372882",
    "tourism": "hotel",
    "website": "https://www.30bencoolen.com.sg"
  }
},
{
  "type": "node",
  "id": 4302905914,
  "lat": 1.2833091,
  "lon": 103.8435952,
  "tags": {
    "addr:city": "Singapore",
    "addr:country": "SG",
    "addr:housenumber": "52, 52A, 54, 54A",
    "addr:postcode": "058597",
    "addr:street": "Temple Street",
    "name": "Beds and Dreams",
    "tourism": "hotel",
    "website": "www.bedsanddreamshostel.com"
  }
},
{
  "type": "node",
  "id": 4302905916,
  "lat": 1.3009164,
  "lon": 103.8515065,
  "tags": {
    "addr:city": "Singapore",
    "addr:country": "SG",
    "addr:housenumber": "200",
    "addr:postcode": "188980",
    "addr:street": "Middle Road",
    "check_date": "2024-04-11",
    "name": "Hotel Lyf Bugis",
    "tourism": "hotel"
  }
},
{
  "type": "node",
  "id": 4302905917,
  "lat": 1.3117429,
  "lon": 103.8602299,
  "tags": {
    "addr:city": "Singapore",
    "addr:country": "SG",
    "addr:housenumber": "151",
    "addr:postcode": "207564",
    "addr:street": "Tyrwhitt Road",
    "email": "blancinn@gmail.com",
    "name": "Blanc Inn",
    "phone": "+65 81139906",
    "tourism": "hotel",
    "website": "https://inn.com.sg/"
  }
},
{
  "type": "node",
  "id": 4302905918,
  "lat": 1.2844578,
  "lon": 103.8443042,
  "tags": {
    "addr:city": "Singapore",
    "addr:country": "SG",
    "addr:housenumber": "62",
    "addr:postcode": "058353",
    "addr:street": "Upper Cross Street",
    "name": "Bliss Hotel",
    "tourism": "hotel",
    "website": "https://www.blisshotel.com.sg/"
  }
},
{
  "type": "node",
  "id": 4302905919,
  "lat": 1.2874770,
  "lon": 103.8471387,
  "tags": {
    "addr:city": "Singapore",
    "addr:country": "SG",
    "addr:housenumber": "33B",
    "addr:postcode": "059672",
    "addr:street": "Hongkong Street",
    "name": "Blissful Loft",
    "name:zh": "新加坡德佑阁楼酒店",
    "tourism": "hotel",
    "website": "www.blissfulloft.com"
  }
},
{
  "type": "node",
  "id": 4302905920,
  "lat": 1.3135160,
  "lon": 103.8788676,
  "tags": {
    "addr:city": "Singapore",
    "addr:country": "SG",
    "addr:housenumber": "20",
    "addr:postcode": "388575",
    "addr:street": "Lorong 17 Geylang",
    "name": "Bright Star Hotel",
    "tourism": "hotel"
  }
},
{
  "type": "node",
  "id": 4302905921,
  "lat": 1.3091791,
  "lon": 103.8532245,
  "tags": {
    "addr:city": "Singapore",
    "addr:country": "SG",
    "addr:housenumber": "195",
    "addr:postcode": "218067",
    "addr:street": "Serangoon Road",
    "name": "Broadway Hotel",
    "tourism": "hotel",
    "website": "http://www.broadwayhotelsingapore.com"
  }
},
{
  "type": "node",
  "id": 4302905923,
  "lat": 1.3122538,
  "lon": 103.8804838,
  "tags": {
    "addr:city": "Singapore",
    "addr:country": "SG",
    "addr:housenumber": "10",
    "addr:postcode": "398793",
    "addr:street": "Lorong 18 Geylang",
    "name": "Budgetone Hotel",
    "tourism": "hotel"
  }
},
{
  "type": "node",
  "id": 4302905927,
  "lat": 1.2496982,
  "lon": 103.8244312,
  "tags": {
    "addr:city": "Singapore",
    "addr:country": "SG",
    "addr:housenumber": "1",
    "addr:postcode": "098297",
    "addr:street": "The Knolls",
    "air_conditioning": "yes",
    "facebook": "https://www.facebook.com/capellasingapore.sentosa",
    "internet_access": "wlan",
    "internet_access:fee": "no",
    "name": "Capella Singapore",
    "name:zh": "嘉佩乐酒店",
    "phone": "+65 6377 8888",
    "rooms": "112",
    "stars": "5",
    "tourism": "hotel",
    "website": "https://www.capellahotels.com/singapore/",
    "wikidata": "Q39056278",
    "wikimedia_commons": "Category:Capella Resort (Sentosa)",
    "wikipedia": "en:Capella Resort, Singapore"
  }
},
{
  "type": "node",
  "id": 4302905930,
  "lat": 1.2957589,
  "lon": 103.8525377,
  "tags": {
    "addr:city": "Singapore",
    "addr:country": "SG",
    "addr:housenumber": "76",
    "addr:postcode": "189558",
    "addr:street": "Bras Basah Road",
    "email": "mail@carltonhotel.sg",
    "fax": "+65 63396866",
    "name": "Carlton Hotel Singapore",
    "phone": "+65 63388333",
    "start_date": "1988",
    "tourism": "hotel",
    "website": "https://www.carltonhotel.sg/",
    "wheelchair": "yes"
  }
},
{
  "type": "node",
  "id": 4302905932,
  "lat": 1.3147981,
  "lon": 103.8984613,
  "tags": {
    "addr:city": "Singapore",
    "addr:country": "SG",
    "addr:housenumber": "60",
    "addr:postcode": "427726",
    "addr:street": "Joo Chiat Road",
    "check_date": "2024-04-21",
    "name": "Champion Hotel",
    "source": "Kaart Ground Survey 2017",
    "tourism": "hotel",
    "website": "www.championhotel.com.sg"
  }
},
{
  "type": "node",
  "id": 4302905933,
  "lat": 1.3131637,
  "lon": 103.8780500,
  "tags": {
    "addr:city": "Singapore",
    "addr:country": "SG",
    "addr:housenumber": "15",
    "addr:postcode": "388607",
    "addr:street": "Lorong 15 Geylang",
    "name": "Chang Ziang Hotel",
    "tourism": "hotel",
    "website": "www.changzianghotel.com"
  }
},
{
  "type": "node",
  "id": 4302905935,
  "lat": 1.3050473,
  "lon": 103.8525890,
  "tags": {
    "addr:city": "Singapore",
    "addr:country": "SG",
    "addr:housenumber": "46-50",
    "addr:postcode": "209918",
    "addr:street": "Campbell Lane",
    "name": "Checkers Backpackers",
    "tourism": "hotel",
    "website": "www.checkers-backpackers.com"
  }
},
{
  "type": "node",
  "id": 4302905937,
  "lat": 1.2803281,
  "lon": 103.8419212,
  "tags": {
    "addr:city": "Singapore",
    "addr:country": "SG",
    "addr:housenumber": "12",
    "addr:postcode": "088387",
    "addr:street": "Teck Lim Road",
    "addr:unit": "12/14/16",
    "contact:instagram": "https://www.instagram.com/hotelsoloha/",
    "email": "enquiries@solohahotels.com",
    "facebook": "https://www.facebook.com/hotelsoloha/",
    "internet_access": "wlan",
    "internet_access:fee": "no",
    "name": "Soloha",
    "phone": "+65 6222 8881",
    "stars": "4",
    "tourism": "hotel",
    "website": "https://solohahotels.com/",
    "wheelchair": "yes"
  }
},
{
  "type": "node",
  "id": 4302905942,
  "lat": 1.3006144,
  "lon": 103.8422281,
  "tags": {
    "addr:city": "Singapore",
    "addr:country": "SG",
    "addr:housenumber": "100",
    "addr:postcode": "238840",
    "addr:street": "Orchard Road",
    "check_date": "2025-05-31",
    "name": "Concorde Hotel Singapore",
    "tourism": "hotel",
    "website": "www.concordehotel.com.sg"
  }
},
{
  "type": "node",
  "id": 4302905943,
  "lat": 1.2935250,
  "lon": 103.8587748,
  "tags": {
    "addr:city": "Singapore",
    "addr:country": "SG",
    "addr:housenumber": "2",
    "addr:postcode": "038982",
    "addr:street": "Temasek Boulevard",
    "brand": "Conrad",
    "brand:wikidata": "Q855525",
    "brand:wikipedia": "en: Hilton Hotels & Resorts",
    "contact:email": "conrad_singapore@conradhotels.com",
    "contact:facebook": "https://www.facebook.com/conradsingaporemarinabay",
    "contact:fax": "+65 6333 9166",
    "contact:instagram": "https://www.instagram.com/conradsingaporemarinabay/",
    "internet_access": "yes",
    "internet_access:fee": "yes",
    "name": "Conrad Singapore Marina Bay",
    "operator": "Hilton",
    "phone": "+65 6334 8888",
    "rooms": "512",
    "stars": "5",
    "tourism": "hotel",
    "website": "https://www.hilton.com/en/hotels/sincici-conrad-singapore-marina-bay/",
    "wikidata": "Q1126748",
    "wikimedia_commons": "Category:Conrad Centennial Singapore",
    "wikipedia": "en:Conrad Singapore Marina Bay"
  }
},
{
  "type": "node",
  "id": 4302905944,
  "lat": 1.2882596,
  "lon": 103.8366425,
  "tags": {
    "addr:city": "Singapore",
    "addr:country": "SG",
    "addr:housenumber": "403",
    "addr:postcode": "169632",
    "addr:street": "Havelock Road",
    "check_date": "2025-04-23",
    "name": "Copthorne King Hotel",
    "tourism": "hotel",
    "website": "www.copthornekings.com.sg"
  }
},
{
  "type": "node",
  "id": 4302905945,
  "lat": 1.3107642,
  "lon": 103.8729379,
  "tags": {
    "addr:city": "Singapore",
    "addr:country": "SG",
    "addr:housenumber": "77A & 79A",
    "addr:postcode": "389198",
    "addr:street": "Geylang Road",
    "check_date": "2023-11-05",
    "name": "The Room Capsule Hotel",
    "tourism": "hotel"
  }
},
{
  "type": "node",
  "id": 4302905948,
  "lat": 1.3101411,
  "lon": 103.8586303,
  "tags": {
    "addr:city": "Singapore",
    "addr:country": "SG",
    "addr:housenumber": "270",
    "addr:postcode": "209019",
    "addr:street": "Jalan Besar",
    "brand": "Holiday Inn Express",
    "brand:wikidata": "Q5880423",
    "name": "Holiday Inn Express Singapore Serangoon",
    "tourism": "hotel"
  }
},
{
  "type": "node",
  "id": 4302905950,
  "lat": 1.3109009,
  "lon": 103.8769700,
  "tags": {
    "addr:city": "Singapore",
    "addr:country": "SG",
    "addr:housenumber": "32",
    "addr:postcode": "399096",
    "addr:street": "Lorong 8 Geylang",
    "name": "Darlene Hotel (Geylang)",
    "tourism": "hotel"
  }
},
{
  "type": "node",
  "id": 4302905951,
  "lat": 1.3269777,
  "lon": 103.8473659,
  "tags": {
    "addr:city": "Singapore",
    "addr:country": "SG",
    "addr:housenumber": "1",
    "addr:postcode": "329133",
    "addr:street": "Jalan Rajah",
    "air_conditioning": "yes",
    "branch": "Singapore Novena East Wing",
    "brand": "Aloft",
    "brand:wikidata": "Q4734166",
    "check_date": "2025-11-05",
    "name": "Aloft",
    "reservation": "yes",
    "stars": "3",
    "tourism": "hotel",
    "website": "https://www.ramada-dayshotelssingapore.com/"
  }
},
{
  "type": "node",
  "id": 4302905952,
  "lat": 1.3106599,
  "lon": 103.8772781,
  "tags": {
    "addr:city": "Singapore",
    "addr:country": "SG",
    "addr:housenumber": "37",
    "addr:postcode": "399099",
    "addr:street": "Lorong 8 Geylang",
    "addr:unit": "A/B/C",
    "name": "K Hotel 8",
    "phone": "+6566772790",
    "tourism": "hotel",
    "website": "https://www.khotel.co/"
  }
},
{
  "type": "node",
  "id": 4302905957,
  "lat": 1.2887766,
  "lon": 103.8344626,
  "tags": {
    "addr:city": "Singapore",
    "addr:country": "SG",
    "addr:housenumber": "317",
    "addr:postcode": "169075",
    "addr:street": "Outram Road",
    "brand": "Holiday Inn",
    "brand:wikidata": "Q2717882",
    "check_date": "2025-04-23",
    "name": "Holiday Inn (Atrium)",
    "tourism": "hotel",
    "website": "https://www.holiday-inn.com/atrium-sin"
  }
},
{
  "type": "node",
  "id": 4302905958,
  "lat": 1.3022791,
  "lon": 103.8411016,
  "tags": {
    "addr:city": "Singapore",
    "addr:country": "SG",
    "addr:housenumber": "11",
    "addr:postcode": "229616",
    "addr:street": "Cavenagh Road",
    "brand": "Holiday Inn",
    "brand:wikidata": "Q2717882",
    "name": "Holiday Inn (Orchard City Centre)",
    "tourism": "hotel",
    "website": "https://www.holidayinn.com/hotels/us/en/singapore/sinpv/hoteldetail"
  }
},
{
  "type": "node",
  "id": 4302905960,
  "lat": 1.3032280,
  "lon": 103.8366804,
  "tags": {
    "addr:city": "Singapore",
    "addr:country": "SG",
    "addr:housenumber": "20",
    "addr:postcode": "229921",
    "addr:street": "Bideford Road",
    "brand": "Holiday Inn Express",
    "brand:wikidata": "Q5880423",
    "name": "Holiday Inn Express (Orchard Road)",
    "tourism": "hotel"
  }
},
{
  "type": "node",
  "id": 4302905963,
  "lat": 1.3104789,
  "lon": 103.8562740,
  "tags": {
    "addr:city": "Singapore",
    "addr:country": "SG",
    "addr:housenumber": "165",
    "addr:postcode": "208532",
    "addr:street": "Kitchener Road",
    "name": "Hotel 165",
    "tourism": "hotel"
  }
},
{
  "type": "node",
  "id": 4302905964,
  "lat": 1.2807922,
  "lon": 103.8418123,
  "tags": {
    "addr:city": "Singapore",
    "addr:country": "SG",
    "addr:housenumber": "50",
    "addr:postcode": "089154",
    "addr:street": "Keong Saik Road",
    "internet_access": "wlan",
    "name": "hotel 1929",
    "tourism": "hotel",
    "website": "https://www.hotel1929.com/"
  }
},
{
  "type": "node",
  "id": 4302905968,
  "lat": 1.3187006,
  "lon": 103.9116567,
  "tags": {
    "addr:city": "Singapore",
    "addr:country": "SG",
    "addr:housenumber": "428",
    "addr:postcode": "419871",
    "addr:street": "Changi Road",
    "addr:unit": "#01-01",
    "branch": "Changi",
    "brand": "Hotel 81",
    "name": "Hotel 81",
    "tourism": "hotel",
    "website": "https://www.hotel81.com.sg/",
    "wheelchair": "yes"
  }
},
{
  "type": "node",
  "id": 4302905969,
  "lat": 1.3119912,
  "lon": 103.8784174,
  "tags": {
    "addr:city": "Singapore",
    "addr:country": "SG",
    "addr:housenumber": "3",
    "addr:postcode": "399014",
    "addr:street": "Lorong 12 Geylang",
    "brand": "Hotel 81",
    "name": "Hotel 81 (Cherry)",
    "tourism": "hotel",
    "website": "https://www.hotel81.com.sg/"
  }
},
{
  "type": "node",
  "id": 4302905971,
  "lat": 1.3156788,
  "lon": 103.8978048,
  "tags": {
    "addr:city": "Singapore",
    "addr:country": "SG",
    "addr:housenumber": "12",
    "addr:postcode": "427353",
    "addr:street": "Joo Chiat Road",
    "brand": "Hotel 81",
    "check_date": "2024-11-17",
    "name": "Hotel 81 (Classic)",
    "source": "Kaart Ground Survey 2017",
    "tourism": "hotel",
    "website": "https://www.hotel81.com.sg/"
  }
},
{
  "type": "node",
  "id": 4302905972,
  "lat": 1.2796864,
  "lon": 103.8418833,
  "tags": {
    "addr:city": "Singapore",
    "addr:country": "SG",
    "addr:housenumber": "8",
    "addr:postcode": "089263",
    "addr:street": "Jiak Chuan Road",
    "brand": "Hotel 81",
    "name": "Hotel 81 (Cosy)",
    "tourism": "hotel",
    "website": "https://www.hotel81.com.sg/"
  }
},
{
  "type": "node",
  "id": 4302905973,
  "lat": 1.3049045,
  "lon": 103.8542693,
  "tags": {
    "addr:city": "Singapore",
    "addr:country": "SG",
    "addr:housenumber": "3",
    "addr:postcode": "209530",
    "addr:street": "Dickson Road",
    "brand": "Hotel 81",
    "name": "Hotel 81 (Dickson)",
    "tourism": "hotel",
    "website": "https://www.hotel81.com.sg/",
    "wikidata": "Q111399648"
  }
},
{
  "type": "node",
  "id": 4302905974,
  "lat": 1.3124598,
  "lon": 103.8602834,
  "tags": {
    "addr:city": "Singapore",
    "addr:country": "SG",
    "addr:housenumber": "30",
    "addr:postcode": "209276",
    "addr:street": "Foch Road",
    "addr:unit": "#01-01",
    "brand": "Hotel 81",
    "name": "Hotel 81 (Elegance)",
    "tourism": "hotel",
    "website": "https://www.hotel81.com.sg/",
    "wikidata": "Q111429495"
  }
},
{
  "type": "node",
  "id": 4302905977,
  "lat": 1.3119564,
  "lon": 103.8811222,
  "tags": {
    "addr:city": "Singapore",
    "addr:country": "SG",
    "addr:housenumber": "20",
    "addr:postcode": "398738",
    "addr:street": "Lorong 20 Geylang",
    "brand": "Hotel 81",
    "name": "Hotel 81 (Gold)",
    "tourism": "hotel",
    "website": "https://www.hotel81.com.sg/",
    "wikidata": "Q111429520"
  }
},
{
  "type": "node",
  "id": 4302905978,
  "lat": 1.3116011,
  "lon": 103.8610655,
  "tags": {
    "addr:city": "Singapore",
    "addr:country": "SG",
    "addr:housenumber": "27",
    "addr:postcode": "209196",
    "addr:street": "Hamilton Road",
    "name": "Lofi Inn",
    "tourism": "hotel",
    "website": "www.lofiinn.com"
  }
},
{
  "type": "node",
  "id": 4302905980,
  "lat": 1.2831615,
  "lon": 103.8430060,
  "tags": {
    "addr:city": "Singapore",
    "addr:country": "SG",
    "addr:housenumber": "76A/B & 78A/B",
    "addr:postcode": "058971",
    "addr:street": "Smith Street",
    "name": "Lulu Hotel",
    "tourism": "hotel",
    "website": "www.lulu-hotel.com"
  }
},
{
  "type": "node",
  "id": 4302905982,
  "lat": 1.2906671,
  "lon": 103.8371494,
  "tags": {
    "addr:city": "Singapore",
    "addr:country": "SG",
    "addr:housenumber": "90",
    "addr:postcode": "238259",
    "addr:street": "Robertson Quay",
    "name": "M Social Singapore",
    "phone": "+6562061888",
    "tourism": "hotel",
    "website": "https://www.millenniumhotels.com/en/singapore/m-social-singapore/"
  }
},
{
  "type": "node",
  "id": 4302905985,
  "lat": 1.3019079,
  "lon": 103.8359161,
  "tags": {
    "addr:city": "Singapore",
    "addr:country": "SG",
    "addr:housenumber": "333",
    "addr:postcode": "238867",
    "addr:street": "Orchard Road",
    "brand": "Hilton",
    "brand:wikidata": "Q598884",
    "brand:wikipedia": "en:Hilton Hotels & Resorts",
    "check_date": "2024-06-13",
    "contact:facebook": "https://www.facebook.com/hiltonsingaporeorchard",
    "contact:instagram": "https://www.instagram.com/hiltonsingaporeorchard/",
    "contact:linkedin": "https://www.linkedin.com/company/hilton-singapore-orchard/",
    "email": "hiltonsingaporeorchard.reservations@hilton.com",
    "internet_access": "yes",
    "internet_access:fee": "yes",
    "name": "Hilton Singapore Orchard",
    "phone": "+65 6737 4411",
    "rooms": "1080",
    "tourism": "hotel",
    "website": "https://www.hilton.com/en/hotels/sinorhi-hilton-singapore-orchard/",
    "wikidata": "Q111243216",
    "wikipedia": "en:Hilton Singapore Orchard"
  }
},
{
  "type": "node",
  "id": 4302905986,
  "lat": 1.2906606,
  "lon": 103.8583240,
  "tags": {
    "addr:city": "Singapore",
    "addr:country": "SG",
    "addr:housename": "Marina Square",
    "addr:housenumber": "5",
    "addr:postcode": "039797",
    "addr:street": "Raffles Avenue",
    "brand": "Mandarin Oriental",
    "name": "Mandarin Oriental Singapore",
    "name:zh": "新加坡文华东方酒店",
    "stars": "5",
    "tourism": "hotel",
    "website": "https://www.mandarinoriental.com",
    "wikidata": "Q490244",
    "wikimedia_commons": "Category:Mandarin Oriental Singapore",
    "wikipedia": "en:Mandarin Oriental, Singapore"
  }
},
{
  "type": "node",
  "id": 4302905987,
  "lat": 1.2836965,
  "lon": 103.8607226,
  "tags": {
    "addr:city": "Singapore",
    "addr:country": "SG",
    "addr:housenumber": "10",
    "addr:postcode": "018956",
    "addr:street": "Bayfront Avenue",
    "internet_access": "wlan",
    "internet_access:fee": "no",
    "name": "Marina Bay Sands",
    "name:en": "Marina Bay Sands",
    "name:ko": "마리나 베이 샌즈",
    "name:zh": "濱海灣金沙娛樂城",
    "stars": "5",
    "tourism": "hotel",
    "website": "https://www.marinabaysands.com/",
    "wikidata": "Q548679",
    "wikimedia_commons": "Category:Marina Bay Sands",
    "wikipedia": "en:Marina Bay Sands"
  }
},
{
  "type": "node",
  "id": 4302905992,
  "lat": 1.3105884,
  "lon": 103.8806177,
  "tags": {
    "addr:city": "Singapore",
    "addr:country": "SG",
    "addr:housenumber": "50",
    "addr:postcode": "398824",
    "addr:street": "Lorong 18 Geylang",
    "brand": "Ibis Budget",
    "brand:wikidata": "Q1458135",
    "brand:wikipedia": "en:Ibis Budget",
    "name": "Ibis Budget Singapore Crystal",
    "old_name": "Fragrance Hotel (Crystal)",
    "tourism": "hotel",
    "website": "https://www.fragrancehotel.com/",
    "wikidata": "Q111406927"
  }
},
{
  "type": "node",
  "id": 4302905994,
  "lat": 1.3096360,
  "lon": 103.8624254,
  "tags": {
    "addr:city": "Singapore",
    "addr:country": "SG",
    "addr:housenumber": "28",
    "addr:postcode": "208187",
    "addr:street": "Penhas Road",
    "brand": "Fragrance Hotel",
    "name": "Fragrance Hotel (Imperial)",
    "tourism": "hotel",
    "website": "https://www.fragrancehotel.com/"
  }
},
{
  "type": "node",
  "id": 4302905998,
  "lat": 1.2924138,
  "lon": 103.7685128,
  "tags": {
    "addr:city": "Singapore",
    "addr:country": "SG",
    "addr:housenumber": "432",
    "addr:postcode": "118773",
    "addr:street": "Pasir Panjang Road",
    "brand": "Fragrance Hotel",
    "check_date": "2026-01-13",
    "name": "Fragrance Hotel (Ocean View)",
    "tourism": "hotel",
    "website": "https://www.fragrancehotel.com/"
  }
},
{
  "type": "node",
  "id": 4302906002,
  "lat": 1.2697068,
  "lon": 103.8138750,
  "tags": {
    "addr:city": "Singapore",
    "addr:country": "SG",
    "addr:housenumber": "400",
    "addr:postcode": "098838",
    "addr:street": "Telok Blangah Road",
    "brand": "Fragrance Hotel",
    "name": "Fragrance Hotel (Royal)",
    "tourism": "hotel",
    "website": "https://www.fragrancehotel.com/"
  }
},
{
  "type": "node",
  "id": 4302906003,
  "lat": 1.3122381,
  "lon": 103.8810971,
  "tags": {
    "addr:city": "Singapore",
    "addr:country": "SG",
    "addr:housenumber": "10",
    "addr:postcode": "398730",
    "addr:street": "Lorong 20 Geylang",
    "brand": "Ibis Budget",
    "brand:wikidata": "Q1458135",
    "name": "Ibis Budget Singapore Ruby",
    "tourism": "hotel",
    "website": "https://www.fragrancehotel.com/",
    "wikidata": "Q111406926"
  }
},
{
  "type": "node",
  "id": 4302906004,
  "lat": 1.3117532,
  "lon": 103.8777213,
  "tags": {
    "addr:city": "Singapore",
    "addr:country": "SG",
    "addr:housenumber": "3",
    "addr:postcode": "399037",
    "addr:street": "Lorong 10 Geylang",
    "brand": "Ibis Budget",
    "brand:wikidata": "Q1458135",
    "name": "Ibis Budget Singapore Sapphire",
    "tourism": "hotel",
    "website": "https://www.fragrancehotel.com/",
    "wikidata": "Q111429510"
  }
},
{
  "type": "node",
  "id": 4302906006,
  "lat": 1.3114563,
  "lon": 103.8775562,
  "tags": {
    "addr:city": "Singapore",
    "addr:country": "SG",
    "addr:housenumber": "10",
    "addr:postcode": "399043",
    "addr:street": "Lorong 10 Geylang",
    "brand": "Ibis Budget",
    "brand:wikidata": "Q1458135",
    "internet_access": "wlan",
    "internet_access:fee": "customers",
    "name": "Ibis Budget Singapore Ametrine",
    "phone": "+6568467888",
    "stars": "2",
    "tourism": "hotel",
    "website": "https://all.accor.com/lien_externe.svlt?goto=fiche_hotel&code_hotel=B6H7&merchantid=seo-maps-SG-B6H7&sourceid=aw-cen&utm_medium=seo+maps&utm_source=google+Maps&utm_campaign=seo+maps&y_source=1_MTUzNTg0MzMtNzE1LWxvY2F0aW9uLndlYnNpdGU%3D",
    "wikidata": "Q111429511"
  }
},
{
  "type": "node",
  "id": 4302906007,
  "lat": 1.2698881,
  "lon": 103.8139698,
  "tags": {
    "addr:city": "Singapore",
    "addr:country": "SG",
    "addr:housenumber": "75",
    "addr:postcode": "098721",
    "addr:street": "Wishart Road",
    "brand": "Fragrance Hotel",
    "name": "Fragrance Hotel (Viva)",
    "tourism": "hotel",
    "website": "https://www.fragrancehotel.com/"
  }
},
{
  "type": "node",
  "id": 4302906008,
  "lat": 1.2922089,
  "lon": 103.7688883,
  "tags": {
    "addr:city": "Singapore",
    "addr:country": "SG",
    "addr:housenumber": "418",
    "addr:postcode": "118759",
    "addr:street": "Pasir Panjang Road",
    "brand": "Fragrance Hotel",
    "name": "Fragrance Hotel (Waterfront)",
    "tourism": "hotel",
    "website": "https://www.fragrancehotel.com/"
  }
},
{
  "type": "node",
  "id": 4302906010,
  "lat": 1.2876291,
  "lon": 103.8359761,
  "tags": {
    "addr:city": "Singapore",
    "addr:country": "SG",
    "addr:housenumber": "405",
    "addr:postcode": "169633",
    "addr:street": "Havelock Road",
    "check_date": "2025-04-23",
    "name": "Furama Riverfront Singapore",
    "tourism": "hotel",
    "website": "www.furama.com/riverfront/"
  }
},
{
  "type": "node",
  "id": 4302906013,
  "lat": 1.3111077,
  "lon": 103.8737852,
  "tags": {
    "addr:city": "Singapore",
    "addr:country": "SG",
    "addr:housenumber": "115",
    "addr:postcode": "389218",
    "addr:street": "Geylang Road",
    "brand": "Habyt",
    "email": "kallang@habyt.com",
    "name": "Habyt Kallang",
    "phone": "+65 9478 5513",
    "tourism": "hotel",
    "website": "https://kallang.habyt.com/"
  }
},
{
  "type": "node",
  "id": 4302906014,
  "lat": 1.3315616,
  "lon": 103.7392596,
  "tags": {
    "addr:city": "Singapore",
    "addr:country": "SG",
    "addr:housenumber": "2",
    "addr:postcode": "608516",
    "addr:street": "Town Hall Link",
    "brand": "Genting",
    "building": "hotel",
    "name": "Genting Hotel (Jurong)",
    "tourism": "hotel",
    "website": "https://www.rwsentosa.com/"
  }
},
{
  "type": "node",
  "id": 4302906015,
  "lat": 1.3111938,
  "lon": 103.8810366,
  "tags": {
    "addr:city": "Singapore",
    "addr:country": "SG",
    "addr:housenumber": "61",
    "addr:postcode": "397662",
    "addr:street": "Westerhout Road",
    "branch": "Geylang",
    "brand": "RedDoorz",
    "brand:wikidata": "Q78186049",
    "name": "RedDoorz",
    "tourism": "hotel",
    "website": "https://www.reddoorz.com/en-sg/hotel/singapore/singapore/geylang/reddoorz-geylang",
    "wikidata": "Q111099979"
  }
},
{
  "type": "node",
  "id": 4302906016,
  "lat": 1.3091421,
  "lon": 103.8552509,
  "tags": {
    "addr:city": "Singapore",
    "addr:country": "SG",
    "addr:housenumber": "51",
    "addr:postcode": "209645",
    "addr:street": "Desker Road",
    "name": "Golden Royal Hotel",
    "tourism": "hotel",
    "website": "www.goldenroyal-hotel.com"
  }
},
{
  "type": "node",
  "id": 4302906017,
  "lat": 1.3107661,
  "lon": 103.8772690,
  "tags": {
    "addr:city": "Singapore",
    "addr:country": "SG",
    "addr:housenumber": "31",
    "addr:postcode": "399095",
    "addr:street": "Lorong 8 Geylang",
    "name": "Golden Star Hotel",
    "tourism": "hotel"
  }
},
{
  "type": "node",
  "id": 4302906018,
  "lat": 1.3082222,
  "lon": 103.8341091,
  "tags": {
    "addr:city": "Singapore",
    "addr:country": "SG",
    "addr:housenumber": "22",
    "addr:postcode": "228221",
    "addr:street": "Scotts Road",
    "name": "Goodwood Park Hotel",
    "tourism": "hotel",
    "website": "https://www.goodwoodparkhotel.com/",
    "wikidata": "Q5583726",
    "wikipedia": "en:Goodwood Park Hotel"
  }
},
{
  "type": "node",
  "id": 4302906019,
  "lat": 1.2905075,
  "lon": 103.8349983,
  "tags": {
    "addr:city": "Singapore",
    "addr:country": "SG",
    "addr:housenumber": "392",
    "addr:postcode": "169663",
    "addr:street": "Havelock Road",
    "name": "Grand Copthorne Waterfront Hotel",
    "tourism": "hotel",
    "website": "www.grandcopthorne.com.sg"
  }
},
{
  "type": "node",
  "id": 4302906020,
  "lat": 1.3063453,
  "lon": 103.8332833,
  "tags": {
    "addr:city": "Singapore",
    "addr:country": "SG",
    "addr:housenumber": "10-12",
    "addr:postcode": "228211",
    "addr:street": "Scotts Road",
    "brand": "Grand Hyatt",
    "brand:wikidata": "Q115794899",
    "name": "Grand Hyatt Singapore",
    "name:ja": "グランド・ハイアット・シンガポール",
    "tourism": "hotel",
    "website": "https://www.singapore.grand.hyatt.com/",
    "wikidata": "Q11300362",
    "wikipedia": "en:Grand Hyatt Singapore"
  }
},
{
  "type": "node",
  "id": 4302906022,
  "lat": 1.3031174,
  "lon": 103.9046000,
  "tags": {
    "addr:city": "Singapore",
    "addr:country": "SG",
    "addr:housenumber": "50",
    "addr:postcode": "428769",
    "addr:street": "East Coast Road",
    "name": "Grand Mercure Roxy Hotel",
    "tourism": "hotel",
    "website": "https://www.grandmercureroxy.com.sg/"
  }
},
{
  "type": "node",
  "id": 4302906023,
  "lat": 1.2926289,
  "lon": 103.8501239,
  "tags": {
    "addr:city": "Singapore",
    "addr:country": "SG",
    "addr:housenumber": "10",
    "addr:postcode": "179809",
    "addr:street": "Coleman Street",
    "air_conditioning": "yes",
    "name": "Grand Park City Hall",
    "tourism": "hotel",
    "website": "https://www.parkhotelgroup.com/",
    "wikidata": "Q111399612"
  }
},
{
  "type": "node",
  "id": 4302906024,
  "lat": 1.3031053,
  "lon": 103.8362020,
  "tags": {
    "addr:city": "Singapore",
    "addr:country": "SG",
    "addr:housenumber": "270",
    "addr:postcode": "238857",
    "addr:street": "Orchard Road",
    "brand": "Pullman",
    "brand:wikidata": "Q3410757",
    "name": "Pullman Singapore Orchard",
    "tourism": "hotel",
    "website": "https://www.pullmansingaporeorchard.com/"
  }
},
{
  "type": "node",
  "id": 4302906025,
  "lat": 1.3097286,
  "lon": 103.8622203,
  "tags": {
    "addr:city": "Singapore",
    "addr:country": "SG",
    "addr:housenumber": "30A, B & C",
    "addr:postcode": "208188",
    "addr:street": "Penhas Road",
    "name": "Gusti Bed and Breakfast",
    "tourism": "hotel",
    "website": "www.gustibnb.com"
  }
},
{
  "type": "node",
  "id": 4302906026,
  "lat": 1.3046208,
  "lon": 103.8545807,
  "tags": {
    "addr:city": "Singapore",
    "addr:country": "SG",
    "addr:housenumber": "33A. 33B, 33C, 35A,35B,35C,37A,37B & 37C",
    "addr:postcode": "208801",
    "addr:street": "Jalan Besar",
    "check_date": "2024-05-10",
    "name": "Haising Hotel",
    "tourism": "hotel",
    "website": "www.haising.com.sg"
  }
},
{
  "type": "node",
  "id": 4302906027,
  "lat": 1.3033663,
  "lon": 103.8478466,
  "tags": {
    "addr:city": "Singapore",
    "addr:country": "SG",
    "addr:housenumber": "10A",
    "addr:postcode": "228119",
    "addr:street": "Upper Wilkie Road",
    "name": "Hangout @ Mt. Emily",
    "tourism": "hotel",
    "website": "https://www.hangouthotels.com/"
  }
},
{
  "type": "node",
  "id": 4302906028,
  "lat": 1.2726140,
  "lon": 103.8277447,
  "tags": {
    "addr:city": "Singapore",
    "addr:country": "SG",
    "addr:housenumber": "512",
    "addr:postcode": "099448",
    "addr:street": "Kampong Bahru Road",
    "name": "Harbour Ville Hotel",
    "tourism": "hotel",
    "website": "www.harbourvillehotel.com"
  }
},
{
  "type": "node",
  "id": 4302906037,
  "lat": 1.3027161,
  "lon": 103.8612999,
  "tags": {
    "addr:city": "Singapore",
    "addr:country": "SG",
    "addr:housenumber": "71",
    "addr:postcode": "198985",
    "addr:street": "Jalan Sultan",
    "brand": "Hotel 81",
    "name": "Hotel 81 (Heritage)",
    "tourism": "hotel",
    "website": "https://www.hotel81.com.sg/",
    "wikidata": "Q111429483"
  }
},
{
  "type": "node",
  "id": 4302906038,
  "lat": 1.3100442,
  "lon": 103.8774045,
  "tags": {
    "addr:city": "Singapore",
    "addr:country": "SG",
    "addr:housenumber": "61",
    "addr:postcode": "399121",
    "addr:street": "Lorong 8 Geylang",
    "brand": "Hotel 81",
    "check_date": "2025-05-28",
    "name": "Hotel 81 (Hollywood)",
    "tourism": "hotel",
    "website": "https://www.hotel81.com.sg/"
  }
},
{
  "type": "node",
  "id": 4302906039,
  "lat": 1.3128598,
  "lon": 103.8768820,
  "tags": {
    "addr:city": "Singapore",
    "addr:country": "SG",
    "addr:housenumber": "11",
    "addr:postcode": "388703",
    "addr:street": "Lorong 11 Geylang",
    "brand": "Hotel 81",
    "name": "Hotel 81 (Joy)",
    "tourism": "hotel",
    "website": "https://www.hotel81.com.sg/"
  }
},
{
  "type": "node",
  "id": 4302906041,
  "lat": 1.3108063,
  "lon": 103.8624358,
  "tags": {
    "addr:city": "Singapore",
    "addr:country": "SG",
    "addr:housenumber": "85",
    "addr:postcode": "338716",
    "addr:street": "Lavender Street",
    "branch": "Lavender",
    "brand": "Hotel 81",
    "name": "Hotel 81 (Lavender)",
    "tourism": "hotel",
    "website": "https://www.hotel81.com.sg/"
  }
},
{
  "type": "node",
  "id": 4302906042,
  "lat": 1.3118839,
  "lon": 103.8814065,
  "tags": {
    "addr:city": "Singapore",
    "addr:country": "SG",
    "addr:housenumber": "23",
    "addr:postcode": "398741",
    "addr:street": "Lorong 20 Geylang",
    "brand": "Hotel 81",
    "name": "Hotel 81 (Lucky)",
    "tourism": "hotel",
    "website": "https://www.hotel81.com.sg/",
    "wikidata": "Q111429520"
  }
},
{
  "type": "node",
  "id": 4302906044,
  "lat": 1.2833649,
  "lon": 103.8349667,
  "tags": {
    "addr:city": "Singapore",
    "addr:country": "SG",
    "addr:housenumber": "1",
    "addr:postcode": "169753",
    "addr:street": "Eng Hoon Street",
    "brand": "Hotel 81",
    "name": "Hotel 81 (Osaka)",
    "tourism": "hotel",
    "website": "https://www.hotel81.com.sg/"
  }
},
{
  "type": "node",
  "id": 4302906046,
  "lat": 1.3110655,
  "lon": 103.8786290,
  "tags": {
    "addr:city": "Singapore",
    "addr:country": "SG",
    "addr:housenumber": "21",
    "addr:postcode": "399001",
    "addr:street": "Lorong 12 Geylang",
    "brand": "Hotel 81",
    "name": "Hotel 81 (Princess)",
    "tourism": "hotel",
    "website": "https://www.hotel81.com.sg/",
    "wikidata": "Q111429515"
  }
},
{
  "type": "node",
  "id": 4302906050,
  "lat": 1.3136828,
  "lon": 103.8782701,
  "tags": {
    "addr:city": "Singapore",
    "addr:country": "SG",
    "addr:housenumber": "22",
    "addr:postcode": "388619",
    "addr:street": "Lorong 15 Geylang",
    "brand": "Hotel 81",
    "name": "Hotel 81 (Spring)",
    "source": "Kaart Ground Survey 2017",
    "tourism": "hotel",
    "website": "https://www.hotel81.com.sg/"
  }
},
{
  "type": "node",
  "id": 4302906052,
  "lat": 1.3156884,
  "lon": 103.8974205,
  "tags": {
    "addr:city": "Singapore",
    "addr:country": "SG",
    "addr:housenumber": "1",
    "addr:postcode": "424780",
    "addr:street": "Onan Road",
    "brand": "Hotel 81",
    "name": "Hotel 81 (Tristar)",
    "tourism": "hotel",
    "website": "https://www.hotel81.com.sg/",
    "wikidata": "Q111429529"
  }
},
{
  "type": "node",
  "id": 4302906053,
  "lat": 1.3111212,
  "lon": 103.8622100,
  "tags": {
    "addr:city": "Singapore",
    "addr:country": "SG",
    "addr:housenumber": "97",
    "addr:postcode": "338722",
    "addr:street": "Lavender Street",
    "brand": "Hotel 81",
    "name": "Hotel 81 (Violet)",
    "tourism": "hotel",
    "website": "https://www.hotel81.com.sg/"
  }
},
{
  "type": "node",
  "id": 4302906054,
  "lat": 1.3119209,
  "lon": 103.8776855,
  "tags": {
    "addr:city": "Singapore",
    "addr:country": "SG",
    "addr:housenumber": "1",
    "addr:postcode": "399035",
    "addr:street": "Lorong 10 Geylang",
    "check_date": "2025-05-28",
    "name": "D'Nova Hotel@Kallang",
    "tourism": "hotel"
  }
},
{
  "type": "node",
  "id": 4302906055,
  "lat": 1.2991867,
  "lon": 103.8501082,
  "tags": {
    "addr:city": "Singapore",
    "addr:country": "SG",
    "addr:housenumber": "47",
    "addr:postcode": "189626",
    "addr:street": "Bencoolen Street",
    "brand": "Hotel Bencoolen",
    "name": "Hotel Bencoolen (Bencoolen Street)",
    "tourism": "hotel",
    "website": "https://www.hotelbencoolen.com/"
  }
},
{
  "type": "node",
  "id": 4302906056,
  "lat": 1.2870936,
  "lon": 103.8476723,
  "tags": {
    "addr:city": "Singapore",
    "addr:country": "SG",
    "addr:housenumber": "47",
    "addr:postcode": "059685",
    "addr:street": "Hongkong Street",
    "brand": "Hotel Bencoolen",
    "name": "Hotel Bencoolen (Hong Kong Street)",
    "stars": "4",
    "tourism": "hotel",
    "website": "https://www.hotelbencoolen.com/hongkongstreet"
  }
},
{
  "type": "node",
  "id": 4302906059,
  "lat": 1.2874477,
  "lon": 103.8478653,
  "tags": {
    "addr:city": "Singapore",
    "addr:country": "SG",
    "addr:housenumber": "5",
    "addr:postcode": "059648",
    "addr:street": "Hongkong Street",
    "internet_access": "wlan",
    "internet_access:fee": "no",
    "name": "Hotel By Wassies",
    "tourism": "hotel"
  }
},
{
  "type": "node",
  "id": 4302906061,
  "lat": 1.3036565,
  "lon": 103.8596598,
  "tags": {
    "addr:city": "Singapore",
    "addr:country": "SG",
    "addr:postcode": "198737",
    "addr:street": "769, 771, 773 & 775 North Bridge Road",
    "brand": "Hotel Clover",
    "check_date": "2024-02-02",
    "name": "Hotel Clover (North Bridge Road)",
    "source": "Kaart Ground Survey 2017",
    "tourism": "hotel",
    "website": "www.hotelclover.com.sg"
  }
},
{
  "type": "node",
  "id": 4302906062,
  "lat": 1.3273449,
  "lon": 103.8466282,
  "tags": {
    "addr:city": "Singapore",
    "addr:country": "SG",
    "addr:housenumber": "16",
    "addr:postcode": "329983",
    "addr:street": "Ah Hood Road",
    "air_conditioning": "yes",
    "bar": "yes",
    "branch": "Singapore Novena West Wing",
    "brand": "Aloft",
    "brand:wikidata": "Q4734166",
    "check_date": "2023-10-15",
    "internet_access": "wlan",
    "internet_access:fee": "customers",
    "name": "Aloft",
    "payment:credit_cards": "yes",
    "reservation": "yes",
    "stars": "4",
    "tourism": "hotel",
    "website": "https://aloft-hotels.marriott.com/",
    "wheelchair": "yes"
  }
},
{
  "type": "node",
  "id": 4302906063,
  "lat": 1.3132564,
  "lon": 103.8758942,
  "tags": {
    "addr:city": "Singapore",
    "addr:country": "SG",
    "addr:housenumber": "56",
    "addr:postcode": "387416",
    "addr:street": "Sims Avenue",
    "name": "Regin Hotel",
    "tourism": "hotel",
    "website": "https://www.reginhotel.com/"
  }
},
{
  "type": "node",
  "id": 4302906064,
  "lat": 1.2985830,
  "lon": 103.8493161,
  "tags": {
    "addr:city": "Singapore",
    "addr:country": "SG",
    "addr:housenumber": "9",
    "addr:postcode": "189559",
    "addr:street": "Bras Basah Road",
    "name": "Rendezvous Hotel Singapore",
    "tourism": "hotel",
    "website": "https://www.stayfareast.com/",
    "wikidata": "Q7312822",
    "wikimedia_commons": "Category:Rendezvous Hotel Singapore",
    "wikipedia": "en:Rendezvous Hotel Singapore"
  }
},
{
  "type": "node",
  "id": 4302906065,
  "lat": 1.3345536,
  "lon": 103.7952442,
  "tags": {
    "addr:city": "Singapore",
    "addr:country": "SG",
    "addr:housenumber": "108",
    "addr:postcode": "287999",
    "addr:street": "Turf Club Road",
    "name": "Rider's Lodge",
    "tourism": "hotel",
    "website": "https://www.riderslodge.net/"
  }
},
{
  "type": "node",
  "id": 4302906066,
  "lat": 1.2874505,
  "lon": 103.8471867,
  "tags": {
    "addr:city": "Singapore",
    "addr:country": "SG",
    "addr:housenumber": "33C",
    "addr:postcode": "059672",
    "addr:street": "Hongkong Street",
    "check_date": "2024-10-11",
    "name": "River City Inn",
    "phone": "+65 6532 6091",
    "tourism": "hotel",
    "website": "https://www.rivercity.com/"
  }
},
{
  "type": "node",
  "id": 4302906067,
  "lat": 1.2893710,
  "lon": 103.8366038,
  "tags": {
    "addr:city": "Singapore",
    "addr:country": "SG",
    "addr:housenumber": "382",
    "addr:postcode": "169629",
    "addr:street": "Havelock Road",
    "brand": "Four Points by Sheraton",
    "brand:wikidata": "Q1439966",
    "name": "Four Points by Sheraton Singapore, Riverview",
    "rooms": "476",
    "short_name": "Four Points",
    "tourism": "hotel",
    "website": "www.riverview.com.sg"
  }
},
{
  "type": "node",
  "id": 4302906069,
  "lat": 1.3092289,
  "lon": 103.8556725,
  "tags": {
    "addr:city": "Singapore",
    "addr:country": "SG",
    "addr:housenumber": "88",
    "addr:postcode": "207667",
    "addr:street": "Syed Alwi Road",
    "addr:unit": "01-02",
    "name": "Royal India Hotel",
    "tourism": "hotel",
    "website": "http://www.royalindiahotel.com"
  }
},
{
  "type": "node",
  "id": 4302906070,
  "lat": 1.3068445,
  "lon": 103.8323698,
  "tags": {
    "addr:city": "Singapore",
    "addr:country": "SG",
    "addr:housenumber": "25",
    "addr:postcode": "228220",
    "addr:street": "Scotts Road",
    "check_date": "2024-05-22",
    "name": "Royal Plaza",
    "tourism": "hotel",
    "website": "https://www.royalplaza.com.sg/"
  }
},
{
  "type": "node",
  "id": 4302906072,
  "lat": 1.3143625,
  "lon": 103.8603160,
  "tags": {
    "addr:city": "Singapore",
    "addr:country": "SG",
    "addr:housenumber": "280",
    "addr:postcode": "338800",
    "addr:street": "Lavender Street",
    "brand": "Rucksack Inn",
    "name": "Rucksack Inn (Lavender)",
    "tourism": "hotel",
    "website": "https://www.rucksackinn.com/"
  }
},
{
  "type": "node",
  "id": 4302906073,
  "lat": 1.3043783,
  "lon": 103.8497987,
  "tags": {
    "addr:city": "Singapore",
    "addr:country": "SG",
    "addr:housenumber": "15",
    "addr:postcode": "228677",
    "addr:street": "Mackenzie Road",
    "brand": "Rucksack Inn",
    "name": "Rucksack Inn (Mackenzie)",
    "tourism": "hotel",
    "website": "https://www.rucksackinn.com/"
  }
},
{
  "type": "node",
  "id": 4302906075,
  "lat": 1.3048093,
  "lon": 103.8535958,
  "tags": {
    "addr:city": "Singapore",
    "addr:country": "SG",
    "addr:housenumber": "63",
    "addr:postcode": "209391",
    "addr:street": "Dunlop Street",
    "name": "Sandpiper Hotel",
    "tourism": "hotel",
    "website": "https://www.sandpiperhotels.com/",
    "wikidata": "Q111399646"
  }
},
{
  "type": "node",
  "id": 4302906076,
  "lat": 1.3040528,
  "lon": 103.8593488,
  "tags": {
    "addr:city": "Singapore",
    "addr:country": "SG",
    "addr:housenumber": "8",
    "addr:postcode": "199207",
    "addr:street": "Jalan Kubor",
    "name": "Rest Bugis",
    "phone": "+6562988434",
    "stars": "3",
    "tourism": "hotel",
    "website": "https://www.rest-collection.com/"
  }
},
{
  "type": "node",
  "id": 4302906077,
  "lat": 1.3066381,
  "lon": 103.9057837,
  "tags": {
    "addr:city": "Singapore",
    "addr:country": "SG",
    "addr:housenumber": "171",
    "addr:postcode": "428877",
    "addr:street": "East Coast Road",
    "brand": "Santa Grand Hotel",
    "check_date": "2026-01-26",
    "name": "Santa Grand Hotel",
    "source": "Kaart Ground Survey 2017",
    "tourism": "hotel",
    "website": "www.santagrandhotels.com",
    "wheelchair": "yes"
  }
},
{
  "type": "node",
  "id": 4302906078,
  "lat": 1.2825676,
  "lon": 103.8441751,
  "tags": {
    "addr:city": "Singapore",
    "addr:country": "SG",
    "addr:housenumber": "25",
    "addr:postcode": "058476",
    "addr:street": "Trengganu Street",
    "brand": "Santa Grand Hotel",
    "name": "Santa Grand Hotel (Lai Chun Yuen)",
    "tourism": "hotel",
    "website": "www.santagrandhotels.com"
  }
},
{
  "type": "node",
  "id": 4302906079,
  "lat": 1.3078199,
  "lon": 103.8530893,
  "tags": {
    "addr:city": "Singapore",
    "addr:country": "SG",
    "addr:housenumber": "3, 5, 7 & 9",
    "addr:postcode": "207309",
    "addr:street": "Veerasamy Road",
    "brand": "Santa Grand Hotel",
    "name": "Santa Grand Hotel (Little India)",
    "tourism": "hotel",
    "website": "www.santagrandhotels.com"
  }
},
{
  "type": "node",
  "id": 4302906080,
  "lat": 1.2923344,
  "lon": 103.7685897,
  "tags": {
    "addr:city": "Singapore",
    "addr:country": "SG",
    "addr:housenumber": "428",
    "addr:postcode": "118769",
    "addr:street": "Pasir Panjang Road",
    "brand": "Santa Grand Hotel",
    "name": "Santa Grand Hotel (West Coast)",
    "tourism": "hotel",
    "website": "www.santagrandhotels.com"
  }
},
{
  "type": "node",
  "id": 4302906084,
  "lat": 1.3119505,
  "lon": 103.8364622,
  "tags": {
    "addr:city": "Singapore",
    "addr:country": "SG",
    "addr:housenumber": "39",
    "addr:postcode": "228230",
    "addr:street": "Scotts Road",
    "name": "Sheraton Towers Singapore",
    "rooms": "420",
    "tourism": "hotel",
    "website": "www.sheratonsingapore.com"
  }
},
{
  "type": "node",
  "id": 4302906089,
  "lat": 1.3051090,
  "lon": 103.8328767,
  "tags": {
    "addr:city": "Singapore",
    "addr:country": "SG",
    "addr:housenumber": "320",
    "addr:postcode": "238865",
    "addr:street": "Orchard Road",
    "brand": "Marriott",
    "brand:wikidata": "Q3918608",
    "name": "Singapore Marriott Tang Plaza Hotel",
    "rooms": "403",
    "tourism": "hotel",
    "website": "www.singaporemarriott.com",
    "wheelchair": "yes"
  }
},
{
  "type": "node",
  "id": 4302906090,
  "lat": 1.3089965,
  "lon": 103.8554997,
  "tags": {
    "addr:city": "Singapore",
    "addr:country": "SG",
    "addr:housenumber": "65",
    "addr:postcode": "209588",
    "addr:street": "Desker Road",
    "name": "Marrison @ Desker",
    "tourism": "hotel",
    "website": "www.marrisonhotel.com"
  }
},
{
  "type": "node",
  "id": 4302906091,
  "lat": 1.2978909,
  "lon": 103.8570875,
  "tags": {
    "addr:city": "Singapore",
    "addr:country": "SG",
    "addr:housenumber": "103",
    "addr:postcode": "189704",
    "addr:street": "Beach Road",
    "check_date": "2024-10-18",
    "name": "the snooze hotel",
    "tourism": "hotel",
    "website": "www.marrisonhotel.com"
  }
},
{
  "type": "node",
  "id": 4302906092,
  "lat": 1.3039628,
  "lon": 103.8541768,
  "tags": {
    "addr:city": "Singapore",
    "addr:country": "SG",
    "addr:housenumber": "9",
    "addr:postcode": "208786",
    "addr:street": "Jalan Besar",
    "name": "Mayo Inn",
    "tourism": "hotel",
    "website": "www.mayoinn.com",
    "wikidata": "Q111429463"
  }
},
{
  "type": "node",
  "id": 4302906094,
  "lat": 1.3132411,
  "lon": 103.8846809,
  "tags": {
    "addr:city": "Singapore",
    "addr:country": "SG",
    "addr:housenumber": "488",
    "addr:postcode": "389447",
    "addr:street": "Geylang Road",
    "name": "Meng Yew Hotel",
    "tourism": "hotel"
  }
},
{
  "type": "node",
  "id": 4302906096,
  "lat": 1.3047409,
  "lon": 103.8546594,
  "tags": {
    "addr:city": "Singapore",
    "addr:country": "SG",
    "addr:postcode": "208804",
    "addr:street": "43A, 43B, 43C Jalan Besar",
    "name": "Meriton Hotel",
    "tourism": "hotel"
  }
},
{
  "type": "node",
  "id": 4302906098,
  "lat": 1.3149984,
  "lon": 103.8577761,
  "tags": {
    "addr:city": "Singapore",
    "addr:country": "SG",
    "addr:housenumber": "531",
    "addr:postcode": "218163",
    "addr:street": "Serangoon Road",
    "check_date": "2024-10-29",
    "name": "Atlantis@531",
    "tourism": "hotel"
  }
},
{
  "type": "node",
  "id": 4302906101,
  "lat": 1.3050840,
  "lon": 103.8540444,
  "tags": {
    "addr:city": "Singapore",
    "addr:country": "SG",
    "addr:housenumber": "23",
    "addr:postcode": "209507",
    "addr:street": "Dickson Road",
    "brand": "RedDoorz",
    "name": "RedDoorz @Little India",
    "name:zh": "住宿",
    "tourism": "hotel",
    "website": "https://www.moon.com.sg",
    "wikidata": "Q115967228"
  }
},
{
  "type": "node",
  "id": 4302906103,
  "lat": 1.2806216,
  "lon": 103.8418196,
  "tags": {
    "addr:city": "Singapore",
    "addr:country": "SG",
    "addr:housenumber": "22",
    "addr:postcode": "088392",
    "addr:street": "Teck Lim Road",
    "name": "Park 22 Hotel",
    "tourism": "hotel",
    "website": "www.park22hotel.com"
  }
},
{
  "type": "node",
  "id": 4302906105,
  "lat": 1.3050688,
  "lon": 103.7888972,
  "tags": {
    "addr:city": "Singapore",
    "addr:country": "SG",
    "addr:housenumber": "31",
    "addr:postcode": "138637",
    "addr:street": "Rochester Drive",
    "name": "Park Avenue Rochester",
    "name:zh": "柏薇罗切斯特酒店",
    "tourism": "hotel",
    "website": "http://www.ueparkavenueintl.com.sg"
  }
},
{
  "type": "node",
  "id": 4302906106,
  "lat": 1.2875264,
  "lon": 103.8052910,
  "tags": {
    "addr:city": "Singapore",
    "addr:country": "SG",
    "addr:housename": "Alexandra Central",
    "addr:housenumber": "323",
    "addr:postcode": "159972",
    "addr:street": "Alexandra Road",
    "brand": "Park Hotel",
    "name": "Park Hotel (Alexandra)",
    "tourism": "hotel",
    "website": "https://www.parkhotelgroup.com/alexandra/default-en.html"
  }
},
{
  "type": "node",
  "id": 4302906111,
  "lat": 1.3106252,
  "lon": 103.8556230,
  "tags": {
    "addr:city": "Singapore",
    "addr:country": "SG",
    "addr:housenumber": "181",
    "addr:postcode": "208533",
    "addr:street": "Kitchener Road",
    "air_conditioning": "yes",
    "brand": "Novotel",
    "brand:wikidata": "Q420545",
    "internet_access": "wlan",
    "name": "Novotel Singapore on Kitchener",
    "phone": "+6564283000",
    "tourism": "hotel",
    "website": "https://all.accor.com/hotel/C269/index.en.shtml"
  }
},
{
  "type": "node",
  "id": 4302906113,
  "lat": 1.2920783,
  "lon": 103.7701676,
  "tags": {
    "addr:city": "Singapore",
    "addr:country": "SG",
    "addr:housenumber": "404",
    "addr:postcode": "118741",
    "addr:street": "Pasir Panjang Road",
    "brand": "Coliwoo",
    "name": "Coliwoo Hotel Pasir Panjang",
    "tourism": "hotel",
    "website": "https://coliwoo.com/hotel-apartment-rental/pasir-panjang/"
  }
},
{
  "type": "node",
  "id": 4302906114,
  "lat": 1.2919459,
  "lon": 103.8498204,
  "tags": {
    "addr:city": "Singapore",
    "addr:country": "SG",
    "addr:housenumber": "3 & 5",
    "addr:postcode": "179805",
    "addr:street": "Coleman Street",
    "name": "Peninsula Excelsior Hotel",
    "tourism": "hotel",
    "website": "http://www.ytchotels.com.sg"
  }
},
{
  "type": "node",
  "id": 4302906115,
  "lat": 1.3111926,
  "lon": 103.8535979,
  "tags": {
    "addr:city": "Singapore",
    "addr:country": "SG",
    "addr:housenumber": "33",
    "addr:postcode": "219894",
    "addr:street": "Birch Road",
    "name": "Penta Hotel",
    "tourism": "hotel",
    "website": "https://www.pentahotel.com.sg/",
    "wheelchair": "yes"
  }
},
{
  "type": "node",
  "id": 4302906116,
  "lat": 1.3048379,
  "lon": 103.8532465,
  "tags": {
    "addr:city": "Singapore",
    "addr:country": "SG",
    "addr:housenumber": "12",
    "addr:postcode": "208133",
    "addr:street": "Perak Road",
    "name": "Perak Hotel",
    "tourism": "hotel",
    "website": "www.peraklodge.net",
    "wikidata": "Q115967063"
  }
},
{
  "type": "node",
  "id": 4302906117,
  "lat": 1.3053682,
  "lon": 103.8537236,
  "tags": {
    "addr:city": "Singapore",
    "addr:country": "SG",
    "addr:housenumber": "43",
    "addr:postcode": "209518",
    "addr:street": "Dickson Road",
    "name": "Phil Inn",
    "tourism": "hotel"
  }
},
{
  "type": "node",
  "id": 4302906118,
  "lat": 1.2841537,
  "lon": 103.8448630,
  "tags": {
    "addr:city": "Singapore",
    "addr:country": "SG",
    "addr:housenumber": "38",
    "addr:postcode": "058341",
    "addr:street": "Upper Cross Street",
    "name": "Pillows & Toast Heritage",
    "tourism": "hotel",
    "website": "https://www.pillowsntoast.com/"
  }
},
{
  "type": "node",
  "id": 4302906119,
  "lat": 1.2980018,
  "lon": 103.8569348,
  "tags": {
    "addr:city": "Singapore",
    "addr:country": "SG",
    "addr:housenumber": "2",
    "addr:postcode": "188091",
    "addr:street": "Tan Quee Lan Street",
    "addr:unit": "#02-01, #02-02 and #02-03",
    "name": "Plush Pods",
    "tourism": "hotel",
    "website": "https://plush-pods.com/"
  }
},
{
  "type": "node",
  "id": 4302906120,
  "lat": 1.2842398,
  "lon": 103.8442855,
  "tags": {
    "addr:city": "Singapore",
    "addr:country": "SG",
    "addr:housenumber": "48",
    "addr:postcode": "059526",
    "addr:street": "Mosque Street",
    "name": "Porcelain Hotel",
    "tourism": "hotel",
    "website": "www.porcelainhotel.com"
  }
},
{
  "type": "node",
  "id": 4302906123,
  "lat": 1.2876728,
  "lon": 103.8489864,
  "tags": {
    "addr:city": "Singapore",
    "addr:country": "SG",
    "addr:housenumber": "12",
    "addr:postcode": "049368",
    "addr:street": "Circular Road",
    "name": "Quarters",
    "tourism": "hotel",
    "website": "www.stayquarters.com"
  }
},
{
  "type": "node",
  "id": 4302906124,
  "lat": 1.3128386,
  "lon": 103.8260319,
  "tags": {
    "addr:city": "Singapore",
    "addr:country": "SG",
    "addr:housenumber": "30",
    "addr:postcode": "258352",
    "addr:street": "Orange Grove Road",
    "name": "RELC International Hotel",
    "tourism": "hotel",
    "website": "https://www.relcih.com.sg/"
  }
},
{
  "type": "node",
  "id": 4302906128,
  "lat": 1.2833389,
  "lon": 103.8533943,
  "tags": {
    "addr:city": "Singapore",
    "addr:country": "SG",
    "addr:housenumber": "80",
    "addr:postcode": "049326",
    "addr:street": "Collyer Quay",
    "check_date": "2026-01-12",
    "name": "The Fullerton Bay Hotel",
    "stars": "5",
    "tourism": "hotel",
    "website": "https://www.fullertonhotels.com/fullerton-bay-hotel-singapore/dining/restaurants-and-bars/lantern"
  }
},
{
  "type": "node",
  "id": 4302906132,
  "lat": 1.2832066,
  "lon": 103.8438685,
  "tags": {
    "addr:city": "Singapore",
    "addr:country": "SG",
    "addr:housenumber": "36",
    "addr:postcode": "058581",
    "addr:street": "Temple Street",
    "name": "The Inn",
    "tourism": "hotel",
    "website": "www.theinn.com.sg"
  }
},
{
  "type": "node",
  "id": 4302906133,
  "lat": 1.2810391,
  "lon": 103.8416402,
  "tags": {
    "addr:city": "Singapore",
    "addr:country": "SG",
    "addr:housenumber": "69",
    "addr:postcode": "089165",
    "addr:street": "Keong Saik Road",
    "name": "KINN Studios",
    "tourism": "hotel",
    "website": "https://staywithkinn.com/"
  }
},
{
  "type": "node",
  "id": 4302906134,
  "lat": 1.3159109,
  "lon": 103.8575554,
  "tags": {
    "addr:city": "Singapore",
    "addr:country": "SG",
    "addr:housenumber": "427",
    "addr:postcode": "218673",
    "addr:street": "Race Course Road",
    "name": "The Mitraa",
    "tourism": "hotel",
    "website": "www.mitraa.com.sg"
  }
},
{
  "type": "node",
  "id": 4302906135,
  "lat": 1.3137968,
  "lon": 103.8597759,
  "tags": {
    "addr:city": "Singapore",
    "addr:country": "SG",
    "addr:housenumber": "407",
    "addr:postcode": "209012",
    "addr:street": "Jalan Besar",
    "brand": "RedDoorz",
    "name": "The Noble Hotel",
    "tourism": "hotel",
    "website": "https://www.thenoblehotel.com"
  }
},
{
  "type": "node",
  "id": 4302906136,
  "lat": 1.2923514,
  "lon": 103.8586837,
  "tags": {
    "addr:city": "Singapore",
    "addr:country": "SG",
    "addr:housenumber": "7",
    "addr:postcode": "039595",
    "addr:street": "Raffles Boulevard",
    "name": "The Pan Pacific Hotel Singapore",
    "name:zh": "新加坡泛太平洋酒店",
    "tourism": "hotel",
    "website": "https://www.panpacific.com/en/hotels-resorts/singapore/marina.html"
  }
},
{
  "type": "node",
  "id": 4302906138,
  "lat": 1.3010101,
  "lon": 103.8605667,
  "tags": {
    "addr:city": "Singapore",
    "addr:country": "SG",
    "addr:floor": "3",
    "addr:housenumber": "289",
    "addr:postcode": "199552",
    "addr:street": "Beach Road",
    "addr:unit": "#03-01, #04-01 & #05-01",
    "check_date": "2024-03-11",
    "level": "2",
    "name": "The Pod",
    "source": "Kaart Ground Survey 2017",
    "tourism": "hotel",
    "website": "www.thepod.sg"
  }
},
{
  "type": "node",
  "id": 4302906139,
  "lat": 1.3077515,
  "lon": 103.8357483,
  "tags": {
    "addr:city": "Singapore",
    "addr:country": "SG",
    "addr:housenumber": "22",
    "addr:postcode": "228517",
    "addr:street": "Mount Elizabeth",
    "name": "The Quincy Hotel",
    "tourism": "hotel",
    "website": "https://www.quincy.com.sg/"
  }
},
{
  "type": "node",
  "id": 4302906141,
  "lat": 1.2905344,
  "lon": 103.8600739,
  "tags": {
    "addr:city": "Singapore",
    "addr:country": "SG",
    "addr:housename": "Millenia Singapore",
    "addr:housenumber": "7",
    "addr:postcode": "039799",
    "addr:street": "Raffles Avenue",
    "brand": "The Ritz-Carlton",
    "brand:wikidata": "Q782200",
    "brand:wikipedia": "en:The Ritz-Carlton Hotel Company",
    "internet_access": "yes",
    "name": "The Ritz-Carlton, Millenia Singapore",
    "name:zh": "新加坡丽思卡尔顿美年酒店",
    "stars": "5",
    "tourism": "hotel",
    "website": "www.ritzcarlton.com/en/Properties/Singapore/Default.htm",
    "wikidata": "Q10363091",
    "wikimedia_commons": "Category:The Ritz-Carlton Millenia Singapore",
    "wikipedia": "en:The Ritz-Carlton Millenia Singapore"
  }
},
{
  "type": "node",
  "id": 4302906142,
  "lat": 1.2807998,
  "lon": 103.8453392,
  "tags": {
    "addr:city": "Singapore",
    "addr:country": "SG",
    "addr:housenumber": "33",
    "addr:postcode": "069333",
    "addr:street": "Erskine Road",
    "name": "The Scarlet Hotel",
    "tourism": "hotel",
    "website": "www.thescarlethotels.com",
    "wikidata": "Q7762427",
    "wikimedia_commons": "Category:The Scarlet Hotel",
    "wikipedia": "en:The Scarlet Singapore"
  }
},
{
  "type": "node",
  "id": 4302906143,
  "lat": 1.2876268,
  "lon": 103.8399732,
  "tags": {
    "addr:city": "Singapore",
    "addr:country": "SG",
    "addr:housenumber": "52",
    "addr:postcode": "169875",
    "addr:street": "Chin Swee Road",
    "check_date:internet_access": "2025-11-23",
    "internet_access": "wlan",
    "internet_access:fee": "no",
    "name": "The Seacare Hotel",
    "smoking": "no",
    "stars": "4",
    "tourism": "hotel",
    "website": "http://www.theseacarehotel.com.sg"
  }
},
{
  "type": "node",
  "id": 4302906147,
  "lat": 1.2783073,
  "lon": 103.8507952,
  "tags": {
    "addr:city": "Singapore",
    "addr:country": "SG",
    "addr:housename": "Asia Square Tower 2",
    "addr:housenumber": "12",
    "addr:postcode": "018961",
    "addr:street": "Marina View",
    "brand": "Westin",
    "brand:wikidata": "Q1969162",
    "name": "The Westin Singapore",
    "rooms": "305",
    "toilets:wheelchair": "yes",
    "tourism": "hotel",
    "website": "http://www.thewestinsingapore.com",
    "wheelchair": "yes"
  }
},
{
  "type": "node",
  "id": 4302906148,
  "lat": 1.3104369,
  "lon": 103.8618211,
  "tags": {
    "addr:city": "Singapore",
    "addr:country": "SG",
    "addr:housenumber": "111H",
    "addr:postcode": "208559",
    "addr:street": "King George's Avenue",
    "email": "traveller@bpsg.com.sg",
    "name": "Traveller@sg",
    "phone": "+65 66832674",
    "tourism": "hotel",
    "website": "https://www.bpsg.com.sg/"
  }
},
{
  "type": "node",
  "id": 4302906332,
  "lat": 1.3005950,
  "lon": 103.8915462,
  "tags": {
    "addr:city": "Singapore",
    "addr:country": "SG",
    "addr:housenumber": "759",
    "addr:postcode": "437761",
    "addr:street": "Mountbatten Road",
    "name": "Sing Hoe",
    "phone": "+65 6440 0602",
    "stars": "1",
    "tourism": "hotel",
    "website": "https://singhoehotel.blogspot.com/"
  }
},
{
  "type": "node",
  "id": 4302906334,
  "lat": 1.3156942,
  "lon": 103.8322064,
  "tags": {
    "addr:city": "Singapore",
    "addr:country": "SG",
    "addr:housenumber": "17",
    "addr:postcode": "259803",
    "addr:street": "Balmoral Road",
    "name": "Sloane Court Hotel",
    "tourism": "hotel"
  }
},
{
  "type": "node",
  "id": 4302906335,
  "lat": 1.2452585,
  "lon": 103.8276491,
  "tags": {
    "addr:city": "Singapore",
    "addr:country": "SG",
    "addr:housenumber": "2",
    "addr:postcode": "099891",
    "addr:street": "Bukit Manis Road",
    "brand": "Sofitel",
    "brand:wikidata": "Q749431",
    "internet_access": "wlan",
    "internet_access:fee": "no",
    "name": "Sofitel Sentosa Resort & Spa",
    "stars": "5",
    "tourism": "hotel",
    "website": "www.sofitel.com/9474"
  }
},
{
  "type": "node",
  "id": 4302906339,
  "lat": 1.2986535,
  "lon": 103.8497382,
  "tags": {
    "addr:city": "Singapore",
    "addr:country": "SG",
    "addr:housenumber": "25",
    "addr:postcode": "189619",
    "addr:street": "Bencoolen Street",
    "name": "Strand Hotel",
    "tourism": "hotel",
    "website": "https://www.strandhotel.com.sg/"
  }
},
{
  "type": "node",
  "id": 4302906340,
  "lat": 1.2907775,
  "lon": 103.8390762,
  "tags": {
    "addr:city": "Singapore",
    "addr:country": "SG",
    "addr:housenumber": "3",
    "addr:postcode": "238910",
    "addr:street": "Nanson Road",
    "name": "Studio M Hotel",
    "tourism": "hotel",
    "website": "https://www.millenniumhotels.com.sg/studiomhotelsingapore"
  }
},
{
  "type": "node",
  "id": 4302906342,
  "lat": 1.3116130,
  "lon": 103.8774878,
  "tags": {
    "addr:city": "Singapore",
    "addr:country": "SG",
    "addr:housenumber": "8",
    "addr:postcode": "399041",
    "addr:street": "Lorong 10 Geylang",
    "internet_access": "wlan",
    "internet_access:fee": "customers",
    "name": "JH Hotel",
    "phone": "+6565137922",
    "tourism": "hotel",
    "website": "https://jh-hotel.business.site/"
  }
},
{
  "type": "node",
  "id": 4302906346,
  "lat": 1.3102722,
  "lon": 103.8565326,
  "tags": {
    "addr:city": "Singapore",
    "addr:country": "SG",
    "addr:housenumber": "163",
    "addr:postcode": "208538",
    "addr:street": "Kitchener Road",
    "name": "Tai Hoe Hotel",
    "tourism": "hotel",
    "website": "https://www.taihoehotel.com/"
  }
},
{
  "type": "node",
  "id": 4302906347,
  "lat": 1.3099482,
  "lon": 103.8771350,
  "tags": {
    "addr:city": "Singapore",
    "addr:country": "SG",
    "addr:housenumber": "60,60B, 62A/B/C & 64A/B/C",
    "addr:postcode": "399120",
    "addr:street": "Lorong 8 Geylang",
    "check_date": "2025-05-28",
    "name": "Taipei Hotel (2000)",
    "tourism": "hotel"
  }
},
{
  "type": "node",
  "id": 4302906349,
  "lat": 1.3042832,
  "lon": 103.8597515,
  "tags": {
    "addr:city": "Singapore",
    "addr:country": "SG",
    "addr:housenumber": "11",
    "addr:postcode": "199323",
    "addr:street": "Jalan Klapa",
    "internet_access": "wlan",
    "internet_access:fee": "no",
    "name": "HI Hotel Bugis",
    "rooms": "15",
    "smoking": "no",
    "stars": "3",
    "tourism": "hotel",
    "website": "http://xyglobalhotel.com/",
    "wheelchair": "yes"
  }
},
{
  "type": "node",
  "id": 4302906351,
  "lat": 1.2807475,
  "lon": 103.8457386,
  "tags": {
    "addr:city": "Singapore",
    "addr:country": "SG",
    "addr:housenumber": "28",
    "addr:postcode": "069708",
    "addr:street": "Ann Siang Road",
    "name": "The Club",
    "name:zh": "新加坡俱乐部酒店",
    "tourism": "hotel",
    "website": "www.theclub.com.sg"
  }
},
{
  "type": "node",
  "id": 4302906352,
  "lat": 1.3048116,
  "lon": 103.8528885,
  "tags": {
    "addr:city": "Singapore",
    "addr:country": "SG",
    "addr:housenumber": "16",
    "addr:postcode": "208413",
    "addr:street": "Madras Street",
    "name": "The Daulat",
    "tourism": "hotel",
    "website": "https://www.thedaulat.com/",
    "wikidata": "Q115968220"
  }
},
{
  "type": "node",
  "id": 4302906353,
  "lat": 1.2788774,
  "lon": 103.8431722,
  "tags": {
    "addr:city": "Singapore",
    "addr:country": "SG",
    "addr:housenumber": "83",
    "addr:postcode": "089540",
    "addr:street": "Duxton Road",
    "name": "The Duxton",
    "tourism": "hotel",
    "website": "https://garchahotels.com/"
  }
},
{
  "type": "node",
  "id": 4302906354,
  "lat": 1.3080241,
  "lon": 103.8357123,
  "tags": {
    "addr:city": "Singapore",
    "addr:country": "SG",
    "addr:housenumber": "24",
    "addr:postcode": "228518",
    "addr:street": "Mount Elizabeth",
    "name": "Vibe Hotel Singapore Orchard",
    "tourism": "hotel",
    "website": "https://www.stayfareast.com.sg/"
  }
},
{
  "type": "node",
  "id": 4302906605,
  "lat": 1.2988846,
  "lon": 103.8507128,
  "tags": {
    "addr:city": "Singapore",
    "addr:country": "SG",
    "addr:housenumber": "48",
    "addr:postcode": "189627",
    "addr:street": "Bencoolen Street",
    "check_date": "2025-07-26",
    "name": "V Hotel Bencoolen",
    "tourism": "hotel",
    "website": "https://www.vhotel.sg/"
  }
},
{
  "type": "node",
  "id": 4302906606,
  "lat": 1.3077968,
  "lon": 103.8625350,
  "tags": {
    "addr:city": "Singapore",
    "addr:country": "SG",
    "addr:housenumber": "70",
    "addr:postcode": "208767",
    "addr:street": "Jellicoe Road",
    "name": "V Hotel Lavender",
    "tourism": "hotel",
    "website": "https://www.vhotel.sg/",
    "wheelchair": "yes"
  }
},
{
  "type": "node",
  "id": 4302906607,
  "lat": 1.3156477,
  "lon": 103.8345731,
  "tags": {
    "addr:city": "Singapore",
    "addr:country": "SG",
    "addr:housenumber": "5",
    "addr:postcode": "259895",
    "addr:street": "Balmoral Crescent",
    "name": "VIP Hotel",
    "tourism": "hotel",
    "website": "https://www.viphotel.com.sg/"
  }
},
{
  "type": "node",
  "id": 4302906610,
  "lat": 1.3269557,
  "lon": 103.8427199,
  "tags": {
    "addr:city": "Singapore",
    "addr:country": "SG",
    "addr:housenumber": "592",
    "addr:postcode": "329901",
    "addr:street": "Balestier Road",
    "brand": "Value Hotel",
    "name": "Value Hotel (Thomson)",
    "tourism": "hotel",
    "website": "https://www.valuehotel.com.sg/"
  }
},
{
  "type": "node",
  "id": 4302906611,
  "lat": 1.3115478,
  "lon": 103.9005824,
  "tags": {
    "addr:city": "Singapore",
    "addr:country": "SG",
    "addr:housenumber": "238",
    "addr:postcode": "427495",
    "addr:street": "Joo Chiat Road",
    "name": "Venue Hotel The Lily",
    "tourism": "hotel",
    "website": "https://www.venuehotel.sg/"
  }
},
{
  "type": "node",
  "id": 4302906613,
  "lat": 1.2970999,
  "lon": 103.8524422,
  "tags": {
    "addr:city": "Singapore",
    "addr:country": "SG",
    "addr:housenumber": "87 & 89",
    "addr:postcode": "188016",
    "addr:street": "Victoria Street",
    "check_date": "2024-03-20",
    "name": "Victoria Hotel",
    "tourism": "hotel",
    "website": "http://www.victoriahotelsingapore.com/",
    "wikidata": "Q111429447"
  }
},
{
  "type": "node",
  "id": 4302906619,
  "lat": 1.3051213,
  "lon": 103.8546295,
  "tags": {
    "addr:city": "Singapore",
    "addr:country": "SG",
    "addr:housenumber": "2",
    "addr:postcode": "209494",
    "addr:street": "Dickson Road",
    "name": "Wanderlust Hotel",
    "tourism": "hotel",
    "website": "https://www.wanderlusthotel.com/",
    "wikidata": "Q111429466"
  }
},
{
  "type": "node",
  "id": 4302906620,
  "lat": 1.2843221,
  "lon": 103.8350100,
  "tags": {
    "addr:city": "Singapore",
    "addr:country": "SG",
    "addr:housenumber": "231",
    "addr:postcode": "169040",
    "addr:street": "Outram Road",
    "brand": "The Ascott Limited",
    "name": "D'Hotel",
    "tourism": "hotel",
    "website": "https://www.discoverasr.com/en/others/singapore/dhotel-singapore?utm_source=google&utm_medium=gmb&utm_campaign=DhotelSingapore"
  }
},
{
  "type": "node",
  "id": 4302906622,
  "lat": 1.2830398,
  "lon": 103.8431615,
  "tags": {
    "addr:city": "Singapore",
    "addr:country": "SG",
    "addr:housenumber": "64-A/B, 66-A/B & 68-A/B",
    "addr:postcode": "058967",
    "addr:street": "Smith Street",
    "name": "Yes Chinatown Pt. Hotel",
    "tourism": "hotel",
    "website": "http://yeschinatownpoint.com"
  }
},
{
  "type": "node",
  "id": 4302906623,
  "lat": 1.3140007,
  "lon": 103.8855041,
  "tags": {
    "addr:city": "Singapore",
    "addr:country": "SG",
    "addr:housenumber": "549",
    "addr:postcode": "389504",
    "addr:street": "Geylang Road",
    "addr:unit": "549A/B",
    "name": "Yew Lian Hotel",
    "source": "Kaart Ground Survey 2017",
    "tourism": "hotel"
  }
},
{
  "type": "node",
  "id": 4302906624,
  "lat": 1.3069254,
  "lon": 103.8351875,
  "tags": {
    "addr:city": "Singapore",
    "addr:country": "SG",
    "addr:housenumber": "21",
    "addr:postcode": "228516",
    "addr:street": "Mount Elizabeth",
    "name": "York Hotel",
    "tourism": "hotel",
    "website": "https://www.yorkhotel.com.sg/"
  }
},
{
  "type": "node",
  "id": 4302906625,
  "lat": 1.2829824,
  "lon": 103.8459241,
  "tags": {
    "addr:city": "Singapore",
    "addr:country": "SG",
    "addr:housenumber": "211A, 213A, 215A & 217A",
    "addr:postcode": "058764",
    "addr:street": "South Bridge Road",
    "name": "iStay.inn",
    "tourism": "hotel"
  }
},
{
  "type": "node",
  "id": 4302906626,
  "lat": 1.2819252,
  "lon": 103.8453233,
  "tags": {
    "addr:city": "Singapore",
    "addr:country": "SG",
    "addr:housenumber": "269",
    "addr:postcode": "058818",
    "addr:street": "South Bridge Road",
    "brand": "5footway.inn",
    "name": "5footway.inn (Ann Siang)",
    "tourism": "hotel",
    "website": "https://www.5footwayinn.com/"
  }
},
{
  "type": "node",
  "id": 4302906627,
  "lat": 1.2882021,
  "lon": 103.8491959,
  "tags": {
    "addr:city": "Singapore",
    "addr:country": "SG",
    "addr:housenumber": "73-76",
    "addr:postcode": "049864",
    "addr:street": "Boat Quay",
    "brand": "5footway.inn",
    "name": "5footway.inn",
    "tourism": "hotel",
    "website": "https://www.5footwayinn.com/"
  }
},
{
  "type": "node",
  "id": 4302906629,
  "lat": 1.2834496,
  "lon": 103.8439035,
  "tags": {
    "addr:city": "Singapore",
    "addr:country": "SG",
    "addr:postcode": "059222",
    "addr:street": "61A/B & 63A/B Pagoda Street",
    "brand": "5footway.inn",
    "name": "5footway.inn (Chinatown 1)",
    "tourism": "hotel",
    "website": "https://www.5footwayinn.com/"
  }
},
{
  "type": "node",
  "id": 4302906630,
  "lat": 1.2827456,
  "lon": 103.8456968,
  "tags": {
    "addr:city": "Singapore",
    "addr:country": "SG",
    "addr:housenumber": "227",
    "addr:postcode": "058778",
    "addr:street": "South Bridge Road",
    "brand": "5footway.inn",
    "name": "Heritage Collection on Chinatown",
    "tourism": "hotel",
    "website": "https://hericoll.com/"
  }
},
{
  "type": "node",
  "id": 4302906631,
  "lat": 1.2836095,
  "lon": 103.8442880,
  "tags": {
    "addr:city": "Singapore",
    "addr:country": "SG",
    "addr:housenumber": "52A",
    "addr:postcode": "059211",
    "addr:street": "Pagoda Street",
    "brand": "5footway.inn",
    "name": "5footway.inn (Chinatown 3)",
    "tourism": "hotel",
    "website": "https://www.5footwayinn.com/"
  }
},
{
  "type": "node",
  "id": 4302906632,
  "lat": 1.2835635,
  "lon": 103.8437083,
  "tags": {
    "addr:city": "Singapore",
    "addr:country": "SG",
    "addr:housenumber": "73A",
    "addr:postcode": "059232",
    "addr:street": "Pagoda Street",
    "brand": "5footway.inn",
    "name": "5footway.inn (Chinatown 4)",
    "tourism": "hotel",
    "website": "https://www.5footwayinn.com/"
  }
},
{
  "type": "node",
  "id": 4317625889,
  "lat": 1.3012281,
  "lon": 103.8423669,
  "tags": {
    "addr:housenumber": "28",
    "addr:street": "Cavenagh Road",
    "name": "Chancellor@Orchard",
    "phone": "+65 6708 8788",
    "tourism": "hotel",
    "website": "fax 67088787"
  }
},
{
  "type": "node",
  "id": 4508200393,
  "lat": 1.3075555,
  "lon": 103.8625282,
  "tags": {
    "tourism": "hotel"
  }
},
{
  "type": "node",
  "id": 4688586591,
  "lat": 1.2923066,
  "lon": 103.8393203,
  "tags": {
    "addr:city": "Singapore",
    "addr:housenumber": "42",
    "addr:postcode": "239351",
    "addr:street": "Kim Yam Road",
    "name": "Alma House",
    "phone": "+65 98537177",
    "tourism": "hotel",
    "website": "https://www.almahouse.sg/"
  }
},
{
  "type": "node",
  "id": 4732458836,
  "lat": 1.3012089,
  "lon": 103.8550968,
  "tags": {
    "addr:street": "Rochor Road",
    "check_date": "2023-06-21",
    "name": "Hovo",
    "tourism": "hotel"
  }
},
{
  "type": "node",
  "id": 4738749684,
  "lat": 1.2894964,
  "lon": 103.8357002,
  "tags": {
    "addr:street": "Havelock Road",
    "name": "Grand Shanghai",
    "source": "Kaart Ground Survey 2017",
    "tourism": "hotel"
  }
},
{
  "type": "node",
  "id": 4738763665,
  "lat": 1.2843702,
  "lon": 103.8446108,
  "tags": {
    "addr:street": "Upper Cross Street",
    "name": "The Platinum",
    "source": "Kaart Ground Survey 2017",
    "tourism": "hotel"
  }
},
{
  "type": "node",
  "id": 4987312923,
  "lat": 1.2563984,
  "lon": 103.8202325,
  "tags": {
    "tourism": "hotel"
  }
},
{
  "type": "node",
  "id": 5055589378,
  "lat": 1.3118004,
  "lon": 103.8605715,
  "tags": {
    "addr:city": "Singapore",
    "addr:country": "SG",
    "addr:housenumber": "162",
    "addr:postcode": "207581",
    "addr:street": "Tyrwhitt Road",
    "name": "Yan Hotel",
    "tourism": "hotel",
    "wikidata": "Q111406920"
  }
},
{
  "type": "node",
  "id": 5204481621,
  "lat": 1.2793919,
  "lon": 103.8439423,
  "tags": {
    "name:ko": "호텔",
    "tourism": "hotel"
  }
},