{
  "version": 0.6,
  "generator": "Overpass API 0.7.62.11 87bfad18",
  "osm3s": {
    "timestamp_osm_base": "2026-04-01T09:32:29Z",
    "copyright": "The data included in this document is from www.openstreetmap.org. The data is made available under ODbL."
  },
  "elements": [

{
  "type": "node",
  "id": 262396496,
  "lat": 41.0111805,
  "lon": 28.9558490,
  "tags": {
    "created_by": "Potlatch 0.8c",
    "name": "Yiğitalp Oteli",
    "name:ar": "فندق يغيتالب",
    "tourism": "hotel",
    "wheelchair": "limited"
  }
},
{
  "type": "node",
  "id": 269507773,
  "lat": 41.0309708,
  "lon": 28.9741781,
  "tags": {
    "created_by": "Potlatch 0.9c",
    "name": "Tepebaşı",
    "name:ar": "تبي باشِ",
    "tourism": "hotel"
  }
},
{
  "type": "node",
  "id": 269523672,
  "lat": 41.0422396,
  "lon": 29.0024836,
  "tags": {
    "addr:city": "İstanbul",
    "addr:housenumber": "22",
    "addr:postcode": "34357",
    "addr:street": "Süleyman Seba Caddesi",
    "brand": "W Hotels",
    "brand:short": "W",
    "brand:wikidata": "Q7958488",
    "brand:wikipedia": "en:W Hotels",
    "name": "W Hotel",
    "phone": "+90 212 381 2121",
    "short_name": "W",
    "tourism": "hotel",
    "wikidata": "Q111400223"
  }
},
{
  "type": "node",
  "id": 275600519,
  "lat": 41.0059174,
  "lon": 28.9691511,
  "tags": {
    "created_by": "Potlatch 0.9c",
    "name": "Hotel Grand Yavuz",
    "name:ar": "فندق جراند يافوز",
    "tourism": "hotel",
    "wikidata": "Q111400358"
  }
},
{
  "type": "node",
  "id": 277139847,
  "lat": 41.0120502,
  "lon": 28.9549786,
  "tags": {
    "addr:housenumber": "5",
    "addr:postcode": "34134",
    "addr:street": "Gencturk Cad. Sirvanizade Sok., No 5. Vezneciler Fatih Istanbul, 34134, Turkey",
    "brand": "Best Western",
    "brand:wikidata": "Q830334",
    "brand:wikipedia": "en:Best Western",
    "name": "Senator Hotel",
    "name:ar": "فندق سيناتور",
    "name:en": "Holiday inn old city",
    "name:ru": "Холидей инн в старом городе",
    "operator": "Best Western",
    "tourism": "hotel",
    "wheelchair": "no",
    "wikidata": "Q111400406"
  }
},
{
  "type": "node",
  "id": 278004998,
  "lat": 41.0069969,
  "lon": 28.9813746,
  "tags": {
    "name": "Mavi Guesthouse",
    "tourism": "hotel"
  }
},
{
  "type": "node",
  "id": 278615640,
  "lat": 41.0411019,
  "lon": 28.9870408,
  "tags": {
    "name": "Divan Hotel",
    "name:ar": "فندق ديفان",
    "operator": "Halkbank",
    "tourism": "hotel",
    "wikidata": "Q15214163",
    "wikipedia": "en:Divan Istanbul"
  }
},
{
  "type": "node",
  "id": 292561278,
  "lat": 41.0346238,
  "lon": 28.9738797,
  "tags": {
    "name": "Euro Plaza",
    "name:ar": "أورو بلازا",
    "tourism": "hotel"
  }
},
{
  "type": "node",
  "id": 415156587,
  "lat": 41.0057000,
  "lon": 28.9791309,
  "tags": {
    "addr:housenumber": "16",
    "addr:street": "Dalbasti Sokak",
    "name": "Aşkin Hotel",
    "tourism": "hotel"
  }
},
{
  "type": "node",
  "id": 415156588,
  "lat": 41.0055340,
  "lon": 28.9790454,
  "tags": {
    "name": "Blue House Hotel",
    "tourism": "hotel"
  }
},
{
  "type": "node",
  "id": 500060394,
  "lat": 41.0144076,
  "lon": 28.9772190,
  "tags": {
    "name": "Hürriyet",
    "tourism": "hotel"
  }
},
{
  "type": "node",
  "id": 513386309,
  "lat": 41.0391240,
  "lon": 28.9826462,
  "tags": {
    "name": "Taksim Yufa Suites",
    "name:ar": "تقسيم يوسف سيوت",
    "tourism": "hotel"
  }
},
{
  "type": "node",
  "id": 687472217,
  "lat": 41.0687481,
  "lon": 29.0074344,
  "tags": {
    "name": "Villa Blanche Hotel",
    "tourism": "hotel"
  }
},
{
  "type": "node",
  "id": 732308107,
  "lat": 41.0070714,
  "lon": 28.9499738,
  "tags": {
    "name": "Fuar",
    "name:ar": "فُوار",
    "tourism": "hotel"
  }
},
{
  "type": "node",
  "id": 765883045,
  "lat": 41.0545682,
  "lon": 28.9334938,
  "tags": {
    "addr:city": "İstanbul",
    "addr:district": "Eyüp Sultan",
    "addr:neighbourhood": "Merkez Mh.",
    "addr:postcode": "34050",
    "addr:street": "İdris Köşkü Caddesi",
    "air_conditioning": "yes",
    "brand": "Turquhouse Boutique Hotel",
    "email": "info@turquhouse.com",
    "fax": "+90 212 497 1616",
    "internet_access": "wlan",
    "internet_access:fee": "no",
    "internet_access:ssid": "Turquhouse",
    "name": "Turquhouse Hotel",
    "operator": "Atalar Turizm",
    "payment:cash": "yes",
    "payment:credit_cards": "yes",
    "payment:debit_cards": "yes",
    "payment:mastercard": "yes",
    "payment:visa": "yes",
    "phone": "+90 212 497 1313",
    "reservation": "required",
    "rooms": "47",
    "smoking": "isolated",
    "tourism": "hotel",
    "wheelchair": "limited"
  }
},
{
  "type": "node",
  "id": 792556744,
  "lat": 41.0399050,
  "lon": 28.9841155,
  "tags": {
    "addr:city": "İstanbul",
    "addr:housenumber": "9-11",
    "addr:street": "Topcu Caddesi",
    "check_date": "2025-01-17",
    "name": "Hotel Occidental Taksim",
    "tourism": "hotel"
  }
},
{
  "type": "node",
  "id": 803325001,
  "lat": 41.0323954,
  "lon": 28.9752350,
  "tags": {
    "addr:city": "İstanbul",
    "addr:full": "Meşrutiyet Caddesi, 117, İstanbul, Türkiye",
    "addr:housenumber": "53",
    "addr:postcode": "34430",
    "addr:street": "Meşrutiyet Caddesi",
    "image": "https://cdn.mastdn.ca/media_attachments/files/110/072/749/555/968/544/original/3c52941428525923.jpg",
    "name": "Grand Hotel de Londres",
    "name:ar": "فندق بيوك لوندرا",
    "name:tr": "Büyük Londra Oteli",
    "phone": "+90 212 245 06 70",
    "tourism": "hotel",
    "website": "https://londrahotel.net/",
    "wheelchair": "no",
    "wikidata": "Q111811874",
    "wikimedia_commons": "Category:Grand Hotel de Londres",
    "wikipedia": "tr:Büyük Londra Oteli"
  }
},
{
  "type": "node",
  "id": 904611372,
  "lat": 41.0063214,
  "lon": 28.9692225,
  "tags": {
    "name": "Hotel Aziyadé",
    "name:ar": "فندق ازييادي",
    "stars": "4",
    "tourism": "hotel"
  }
},
{
  "type": "node",
  "id": 939122974,
  "lat": 41.0343318,
  "lon": 28.9844953,
  "tags": {
    "check_date": "2024-09-28",
    "name": "Vardar Palace",
    "name:ar": "فاردار بالاس",
    "tourism": "hotel"
  }
},
{
  "type": "node",
  "id": 952160695,
  "lat": 41.0126588,
  "lon": 28.9569243,
  "tags": {
    "name": "Telia",
    "name:ar": "تيليا",
    "tourism": "hotel",
    "wheelchair": "limited"
  }
},
{
  "type": "node",
  "id": 1000021823,
  "lat": 41.0054141,
  "lon": 28.9799391,
  "tags": {
    "addr:city": "İstanbul",
    "addr:district": "Fatih",
    "addr:housenumber": "52",
    "addr:postcode": "34100",
    "addr:street": "Akbıyık Caddesi",
    "contact:mobile": "+90 532 284 51 31",
    "name": "Güleç Konak Hotel",
    "tourism": "hotel"
  }
},
{
  "type": "node",
  "id": 1000021884,
  "lat": 41.0056099,
  "lon": 28.9802244,
  "tags": {
    "tourism": "hotel"
  }
},
{
  "type": "node",
  "id": 1000022116,
  "lat": 41.0053589,
  "lon": 28.9802244,
  "tags": {
    "tourism": "hotel"
  }
},
{
  "type": "node",
  "id": 1106083650,
  "lat": 41.0043453,
  "lon": 28.9802508,
  "tags": {
    "name": "Sumengen Hotel",
    "name:ar": "فندق سومينجين",
    "tourism": "hotel",
    "wikidata": "Q111856804"
  }
},
{
  "type": "node",
  "id": 1106083653,
  "lat": 41.0045357,
  "lon": 28.9801642,
  "tags": {
    "addr:street": "Amiral Tafdil Sokak",
    "name": "Obelisk Hotel - Best Western",
    "name:ar": "فندق أوبيليسيك - بيست ويسرين",
    "tourism": "hotel"
  }
},
{
  "type": "node",
  "id": 1161228099,
  "lat": 41.0400994,
  "lon": 28.9848089,
  "tags": {
    "check_date": "2025-01-17",
    "name": "Arts Hotel Taksim",
    "tourism": "hotel"
  }
},
{
  "type": "node",
  "id": 1179308582,
  "lat": 41.0034679,
  "lon": 28.9768052,
  "tags": {
    "name:ar": "تاشكونان",
    "tourism": "hotel"
  }
},
{
  "type": "node",
  "id": 1249920994,
  "lat": 41.0046865,
  "lon": 28.9802381,
  "tags": {
    "addr:housenumber": "5",
    "addr:street": "Amiral Tafdil Sokak",
    "name": "Acra Hotel",
    "name:ar": "فندق أرجا",
    "tourism": "hotel"
  }
},
{
  "type": "node",
  "id": 1251645280,
  "lat": 41.0061282,
  "lon": 28.9813913,
  "tags": {
    "addr:housenumber": "6",
    "name": "Hotel Peninsula",
    "tourism": "hotel",
    "website": "https://www.hotelpeninsula.com/",
    "wikidata": "Q111415853"
  }
},
{
  "type": "node",
  "id": 1325246139,
  "lat": 41.0049321,
  "lon": 28.9790616,
  "tags": {
    "email": "info@nobelhostel.com",
    "internet_access": "wlan",
    "internet_access:fee": "no",
    "name": "Nobel Hostel",
    "phone": "+90 212 516 3177",
    "tourism": "hotel",
    "website": "https://www.nobelhostel.com/",
    "wikidata": "Q111122538"
  }
},
{
  "type": "node",
  "id": 1325246155,
  "lat": 41.0059321,
  "lon": 28.9791644,
  "tags": {
    "addr:city": "İstanbul",
    "addr:district": "Fatih",
    "addr:housenumber": "19",
    "addr:neighbourhood": "Cankurtaran Mahallesi",
    "addr:postcode": "34122",
    "addr:street": "Utangaç Sokağı",
    "email": "spina@armagrandi.com",
    "name": "Armagrandi Spina Hotel",
    "parking": "surface",
    "phone": "+902126381727;02126381727",
    "tourism": "hotel",
    "website": "https://www.armagrandi.com/"
  }
},
{
  "type": "node",
  "id": 1343734824,
  "lat": 41.0056825,
  "lon": 28.9645057,
  "tags": {
    "name": "istanbul port hotel",
    "name:ar": "فندق ميناء اسطنبول",
    "tourism": "hotel",
    "wheelchair": "yes"
  }
},
{
  "type": "node",
  "id": 1365841276,
  "lat": 41.0625138,
  "lon": 29.0112483,
  "tags": {
    "addr:neighbourhood": "Balmumcu",
    "brand": "Mövenpick",
    "brand:wikidata": "Q691162",
    "name": "Mövenpick Hotel Istanbul Bosphorus",
    "tourism": "hotel"
  }
},
{
  "type": "node",
  "id": 1365850199,
  "lat": 41.0641361,
  "lon": 29.0106091,
  "tags": {
    "addr:housenumber": "29",
    "addr:neighbourhood": "Esentepe Mah.",
    "addr:postcode": "34394",
    "addr:street": "Yıldız Posta Caddesi",
    "internet_access": "wlan",
    "internet_access:password": "pointinternet",
    "name": "Point Hotel Barbaros",
    "note": "WiFi password: pointinternet",
    "phone": "+902123373000",
    "stars": "5",
    "tourism": "hotel",
    "website": "https://www.pointhotel.com/point-hotel-barbaros-home.aspx",
    "wikidata": "Q111400232"
  }
},
{
  "type": "node",
  "id": 1394802743,
  "lat": 40.9725321,
  "lon": 28.8703977,
  "tags": {
    "addr:city": "ISTANBUL",
    "addr:postcode": "34158",
    "addr:street": "Ataköy 1. Kısım Mh",
    "alt_name": "The Crowne Plaza - Ataköy",
    "brand": "Sheraton",
    "brand:wikidata": "Q634831",
    "name": "Sheraton Istanbul Ataköy",
    "name:ar": "شيراتون اسطنبول اتاكوي",
    "phone": "0212 560 8100",
    "toilets:wheelchair": "yes",
    "tourism": "hotel",
    "wheelchair": "yes",
    "wheelchair:description": "Tekerlekli sandalyeli için uygun özeliklere sahip odaları vardır.",
    "wikidata": "Q111400421"
  }
},
{
  "type": "node",
  "id": 1473034819,
  "lat": 41.0035378,
  "lon": 28.9763370,
  "tags": {
    "name": "Anatolia Suites Sultanahmet",
    "name:ar": "سلطان أحمد أنتوليا سيوت",
    "tourism": "hotel"
  }
},
{
  "type": "node",
  "id": 1496713040,
  "lat": 41.0129563,
  "lon": 28.9772993,
  "tags": {
    "addr:city": "İstanbul",
    "addr:district": "Fatih",
    "addr:housenumber": "8",
    "addr:street": "Ibn-I-Kemal Caddesi",
    "alt_name": "Hotel Safir",
    "check_date": "2024-11-15",
    "email": "sapphire@hotelsapphire.com",
    "name": "Hotel Sapphire",
    "phone": "+90 212 520 56 86",
    "source:alt_name": "Street sign for this has a different spelling",
    "tourism": "hotel",
    "website": "https://hotelsapphire.com/",
    "wikidata": "Q111400308"
  }
},
{
  "type": "node",
  "id": 1604780631,
  "lat": 41.0348645,
  "lon": 28.9847348,
  "tags": {
    "addr:city": "İstanbul",
    "addr:country": "TR",
    "addr:housenumber": "37",
    "addr:postcode": "34433",
    "addr:street": "Sıraselviler Caddesi",
    "name": "Taksim Star Hotel",
    "name:ar": "فندق تقسيم ستار",
    "tourism": "hotel",
    "website": "http://www.starhotelsgroup.com/Our-Hotels/Taksim-Star-Hotel-C46-P42.html",
    "wikidata": "Q111856944"
  }
},
{
  "type": "node",
  "id": 1632647865,
  "lat": 41.0035569,
  "lon": 28.9801446,
  "tags": {
    "name": "Ahmet Efendi Evi",
    "name:ar": "فندق أحمد أفندي إيفي",
    "tourism": "hotel",
    "wikidata": "Q111856798"
  }
},
{
  "type": "node",
  "id": 1690329824,
  "lat": 41.0407020,
  "lon": 28.9858378,
  "tags": {
    "name": "Point Hotel",
    "tourism": "hotel"
  }
},
{
  "type": "node",
  "id": 1762083460,
  "lat": 41.0031733,
  "lon": 28.9745331,
  "tags": {
    "amenity": "restaurant",
    "name": "Sultan’s Inn",
    "name:ar": "مطعم سلطان إن",
    "tourism": "hotel",
    "website": "https://www.sultansinn.com/",
    "wikidata": "Q111400262"
  }
},
{
  "type": "node",
  "id": 1770234334,
  "lat": 41.0248728,
  "lon": 28.9779749,
  "tags": {
    "name": "Weingart Hotel",
    "tourism": "hotel"
  }
},
{
  "type": "node",
  "id": 1784912021,
  "lat": 41.0121490,
  "lon": 28.9779399,
  "tags": {
    "addr:housenumber": "6-8",
    "addr:street": "Ebussuud Caddesi",
    "contact:website": "http://www.olimpiyathotel.com/",
    "name": "Olimpiyat Hotel",
    "tourism": "hotel"
  }
},
{
  "type": "node",
  "id": 1784912033,
  "lat": 41.0123061,
  "lon": 28.9776865,
  "tags": {
    "addr:housenumber": "18",
    "addr:street": "Ebussuud Caddesi",
    "contact:website": "http://hotelyasmaksultan.com",
    "name": "Yasmak Sultan Hotel",
    "tourism": "hotel"
  }
},
{
  "type": "node",
  "id": 1789464100,
  "lat": 41.0242509,
  "lon": 28.9784036,
  "tags": {
    "check_date": "2025-01-18",
    "internet_access": "wlan",
    "internet_access:fee": "customers",
    "name": "Cheers Port House",
    "tourism": "hotel",
    "wheelchair": "no",
    "wikidata": "Q111122544"
  }
},
{
  "type": "node",
  "id": 1807703795,
  "lat": 41.0050264,
  "lon": 28.9679432,
  "tags": {
    "check_date": "2022-11-12",
    "name": "Ottoman Hotel",
    "name:ar": "الفندق العثماني",
    "tourism": "hotel"
  }
},
{
  "type": "node",
  "id": 1839561313,
  "lat": 41.0125967,
  "lon": 28.9781873,
  "tags": {
    "name": "Faros Hotel",
    "tourism": "hotel"
  }
},
{
  "type": "node",
  "id": 1863234779,
  "lat": 41.0708783,
  "lon": 29.0149625,
  "tags": {
    "name": "Avantgarde Hotel",
    "tourism": "hotel"
  }
},
{
  "type": "node",
  "id": 1885894932,
  "lat": 41.0100651,
  "lon": 28.9780687,
  "tags": {
    "addr:housenumber": "25",
    "addr:street": "Zeynepsultan Camii Sokağı",
    "contact:website": "http://zeynepsultanhotel.com/",
    "name": "Zeynep Sultan Hotel",
    "phone": "2125145001",
    "tourism": "hotel",
    "website": "http://zeynepsultanhotel.com/indexmobile.php",
    "wikidata": "Q111400269"
  }
},
{
  "type": "node",
  "id": 1885900109,
  "lat": 41.0471663,
  "lon": 28.9863054,
  "tags": {
    "name": "5 Boutique Hotel",
    "tourism": "hotel"
  }
},
{
  "type": "node",
  "id": 1908677117,
  "lat": 41.0055208,
  "lon": 28.9686387,
  "tags": {
    "name": "Fors Hotel",
    "name:ar": "فندق فرس",
    "tourism": "hotel",
    "wikidata": "Q111122605"
  }
},
{
  "type": "node",
  "id": 1909658609,
  "lat": 41.0395793,
  "lon": 28.9849503,
  "tags": {
    "addr:housenumber": "18",
    "addr:street": "Lamartin Caddesi",
    "check_date": "2025-01-17",
    "name": "The Central Palace",
    "name:fa": "هتل سنترال پالاس",
    "tourism": "hotel"
  }
},
{
  "type": "node",
  "id": 1912881339,
  "lat": 41.0398779,
  "lon": 28.9853646,
  "tags": {
    "name": "Crystal Hotel",
    "name:fa": "کریستال هتل",
    "tourism": "hotel"
  }
},
{
  "type": "node",
  "id": 1914160114,
  "lat": 41.0032019,
  "lon": 28.9774013,
  "tags": {
    "addr:postcode": "34122",
    "internet_access": "wlan",
    "name": "Almina Otel",
    "name:ar": "فندق ألمينا",
    "name:ru": "Альмина Отель",
    "phone": "+90 554 166 13 17",
    "tourism": "hotel",
    "website": "https://alminahotel.com.tr/"
  }
},
{
  "type": "node",
  "id": 1914160116,
  "lat": 41.0035965,
  "lon": 28.9791271,
  "tags": {
    "name": "Antis Hotel",
    "name:ar": "فندق أنتيس",
    "tourism": "hotel"
  }
},
{
  "type": "node",
  "id": 1914160117,
  "lat": 41.0041595,
  "lon": 28.9798452,
  "tags": {
    "name": "Avicenna Hotel",
    "name:ar": "فندق أفيجينا",
    "tourism": "hotel",
    "wikidata": "Q111400243"
  }
},
{
  "type": "node",
  "id": 1914160118,
  "lat": 41.0044804,
  "lon": 28.9801898,
  "tags": {
    "name": "Azade Hotel",
    "name:ar": "فندق أزادي",
    "tourism": "hotel",
    "wikidata": "Q111400237"
  }
},
{
  "type": "node",
  "id": 1914160121,
  "lat": 41.0043678,
  "lon": 28.9789948,
  "tags": {
    "name": "Divalis Hotel",
    "name:ar": "فندق ديرفيتش",
    "tourism": "hotel",
    "wikidata": "Q111856836"
  }
},
{
  "type": "node",
  "id": 1914160122,
  "lat": 41.0032660,
  "lon": 28.9770966,
  "tags": {
    "name": "Hotel Sphendon",
    "name:ar": "فندق سفيندوم",
    "tourism": "hotel"
  }
},
{
  "type": "node",
  "id": 1914160127,
  "lat": 41.0033744,
  "lon": 28.9762497,
  "tags": {
    "name": "Tashkonak Hotel",
    "name:ar": "فندق تاش كوناك",
    "tourism": "hotel",
    "wikidata": "Q111122587"
  }
},
{
  "type": "node",
  "id": 1915390152,
  "lat": 41.0352475,
  "lon": 28.9786728,
  "tags": {
    "name": "Shamrock Hotel",
    "tourism": "hotel"
  }
},
{
  "type": "node",
  "id": 1934480228,
  "lat": 41.0675784,
  "lon": 28.9739333,
  "tags": {
    "name": "Tempo Hotel",
    "tourism": "hotel"
  }
},
{
  "type": "node",
  "id": 1935264363,
  "lat": 40.9775896,
  "lon": 28.8701553,
  "tags": {
    "name": "Titanic Port Hotel",
    "tourism": "hotel"
  }
},
{
  "type": "node",
  "id": 1937914694,
  "lat": 41.0068739,
  "lon": 28.9736116,
  "tags": {
    "addr:city": "İstanbul",
    "addr:district": "Fatih",
    "addr:housenumber": "1",
    "addr:postcode": "34400",
    "addr:street": "İmran Öktem Caddesi",
    "email": "info@hotelarcadiablue.com",
    "internet_access": "wlan",
    "name": "Hotel Arcadia Blue",
    "name:ar": "فندق أرجاديا بلو",
    "opening_hours": "24/7",
    "phone": "+90 212 516 9696",
    "tourism": "hotel",
    "website": "https://www.hotelarcadiablue.com/en",
    "wikidata": "Q111856935"
  }
},
{
  "type": "node",
  "id": 1957446183,
  "lat": 41.0246745,
  "lon": 28.9776155,
  "tags": {
    "name": "Finch Apartments",
    "tourism": "hotel"
  }
},
{
  "type": "node",
  "id": 1969992644,
  "lat": 40.9785685,
  "lon": 28.8822336,
  "tags": {
    "name": "EPOS Hotel",
    "tourism": "hotel"
  }
},
{
  "type": "node",
  "id": 1995185644,
  "lat": 41.0132472,
  "lon": 28.9777395,
  "tags": {
    "name": "Turvan",
    "tourism": "hotel"
  }
},
{
  "type": "node",
  "id": 2126619167,
  "lat": 41.0377570,
  "lon": 28.9803862,
  "tags": {
    "name": "Gezilist House Residence",
    "tourism": "hotel"
  }
},
{
  "type": "node",
  "id": 2129678506,
  "lat": 41.0605426,
  "lon": 29.0086244,
  "tags": {
    "name": "Serrac Hotel",
    "tourism": "hotel"
  }
},
{
  "type": "node",
  "id": 2201796690,
  "lat": 41.0191474,
  "lon": 28.9630482,
  "tags": {
    "name": "HHK Hotel",
    "source": "http://hhkhotel.com",
    "tourism": "hotel"
  }
},
{
  "type": "node",
  "id": 2239749973,
  "lat": 41.0059122,
  "lon": 28.9732210,
  "tags": {
    "addr:city": "İstanbul",
    "addr:housenumber": "28",
    "addr:postcode": "34122",
    "addr:street": "Peykhane Caddesi",
    "check_date": "2022-11-12",
    "email": "info@celinehotel.com.tr",
    "fax": "+90 212 517 96 66",
    "internet_access": "wlan",
    "internet_access:fee": "no",
    "name": "Celine Hotel",
    "name:ar": "فندق سليني",
    "phone": "+90 212 517 19 19",
    "tourism": "hotel",
    "website": "https://www.hotelceline.com/"
  }
},
{
  "type": "node",
  "id": 2242576003,
  "lat": 41.0066336,
  "lon": 28.9733489,
  "tags": {
    "name": "Lausos",
    "name:ar": "فندق لاسوس",
    "tourism": "hotel"
  }
},
{
  "type": "node",
  "id": 2242576040,
  "lat": 41.0082100,
  "lon": 28.9705233,
  "tags": {
    "addr:city": "İstanbul",
    "addr:district": "Fatih",
    "addr:housenumber": "6",
    "addr:neighbourhood": "Emin Sinan Mahallesi",
    "addr:postcode": "34122",
    "addr:street": "Evkaf Sokak",
    "email": "info@hotelnewhouse.com",
    "name": "Hotel New House",
    "phone": "+90 212 516 70 70",
    "tourism": "hotel",
    "website": "http://www.hotelnewhouse.com/",
    "wikidata": "Q111857035"
  }
},
{
  "type": "node",
  "id": 2242576057,
  "lat": 41.0067945,
  "lon": 28.9710024,
  "tags": {
    "name": "Golden Crown",
    "tourism": "hotel"
  }
},
{
  "type": "node",
  "id": 2300981485,
  "lat": 41.0501628,
  "lon": 28.9880406,
  "tags": {
    "name": "La Piano",
    "tourism": "hotel",
    "website": "http://www.hotellapiano.com/",
    "wikidata": "Q112027064"
  }
},
{
  "type": "node",
  "id": 2313688959,
  "lat": 41.0354351,
  "lon": 28.9776203,
  "tags": {
    "name": "New Pera Suites",
    "tourism": "hotel"
  }
},
{
  "type": "node",
  "id": 2322306553,
  "lat": 41.0341028,
  "lon": 28.9810364,
  "tags": {
    "designation": "İstiklal St House",
    "name": "İstiklal St House",
    "phone": "+90 212 243 24 31",
    "source": "İstiklal St House",
    "tourism": "hotel",
    "website": "http://www.istiklalsthouse.com/"
  }
},
{
  "type": "node",
  "id": 2329194005,
  "lat": 41.0364373,
  "lon": 28.9863444,
  "tags": {
    "addr:city": "İstanbul",
    "addr:district": "Beyoğlu",
    "name": "The Marmara Taksim",
    "tourism": "hotel",
    "website": "https://www.themarmarahotels.com/en/Hotels/Taksim",
    "wikidata": "Q97462506",
    "wikimedia_commons": "Category:The Marmara Taksim Oteli",
    "wikipedia": "tr:The Marmara Taksim Oteli"
  }
},
{
  "type": "node",
  "id": 2343698950,
  "lat": 41.0037248,
  "lon": 28.9712883,
  "tags": {
    "name": "Bereket Apart Hotel",
    "name:ar": "فندق بركة ابارت",
    "source": "visit",
    "tourism": "hotel"
  }
},
{
  "type": "node",
  "id": 2348218021,
  "lat": 40.9959983,
  "lon": 29.0259511,
  "tags": {
    "addr:housenumber": "36",
    "addr:street": "Iskele Sokak",
    "name": "Iskele House Flats",
    "tourism": "hotel"
  }
},
{
  "type": "node",
  "id": 2378122621,
  "lat": 41.0524192,
  "lon": 28.9903756,
  "tags": {
    "name": "Boutique Hotel Riva",
    "tourism": "hotel",
    "website": "http://www.boutiquehotelriva.com/"
  }
},
{
  "type": "node",
  "id": 2379706608,
  "lat": 41.0030423,
  "lon": 28.9764619,
  "tags": {
    "name": "Aura Apart Hotel",
    "name:ar": "فندق أورا أبارت",
    "tourism": "hotel",
    "website": "www.auraaparthotel.com"
  }
},
{
  "type": "node",
  "id": 2433913439,
  "lat": 41.0036178,
  "lon": 28.9710104,
  "tags": {
    "addr:housenumber": "138",
    "addr:street": "Kardiga Liman Caddesi",
    "name": "Hotel Byzaz",
    "name:ar": "فندق بايزاز",
    "phone": "+90 212 517 93 93",
    "tourism": "hotel"
  }
},
{
  "type": "node",
  "id": 2449446059,
  "lat": 40.9933609,
  "lon": 29.0250844,
  "tags": {
    "name": "Eysan Hotel",
    "tourism": "hotel"
  }
},
{
  "type": "node",
  "id": 2449446065,
  "lat": 40.9925681,
  "lon": 29.0249954,
  "tags": {
    "name": "Parpali Otel",
    "tourism": "hotel"
  }
},
{
  "type": "node",
  "id": 2482928508,
  "lat": 41.0078005,
  "lon": 28.8935202,
  "tags": {
    "name": "Güneş Otel",
    "tourism": "hotel",
    "wikidata": "Q111857329"
  }
},
{
  "type": "node",
  "id": 2517174561,
  "lat": 41.0126408,
  "lon": 28.9781056,
  "tags": {
    "name": "Gulhane Corner Hotel",
    "name:zh": "古汉克娜酒店",
    "tourism": "hotel"
  }
},
{
  "type": "node",
  "id": 2519859560,
  "lat": 41.0070925,
  "lon": 28.9704496,
  "tags": {
    "name": "Dedem Boutique",
    "tourism": "hotel",
    "wikidata": "Q111998513"
  }
},
{
  "type": "node",
  "id": 2519859561,
  "lat": 41.0070849,
  "lon": 28.9705452,
  "tags": {
    "name": "Kupeli Hotel",
    "tourism": "hotel",
    "wikidata": "Q111857007"
  }
},
{
  "type": "node",
  "id": 2519859562,
  "lat": 41.0070836,
  "lon": 28.9706285,
  "tags": {
    "internet_access": "wlan",
    "internet_access:fee": "no",
    "name": "Santa Sophia",
    "phone": "+902125174176",
    "stars": "3",
    "tourism": "hotel",
    "wikidata": "Q111857006"
  }
},
{
  "type": "node",
  "id": 2524535697,
  "lat": 41.0045657,
  "lon": 28.9780948,
  "tags": {
    "email": "info@sultanahmetpalace.com",
    "name": "Sultan Ahmet Palace",
    "name:ar": "قصر سلطان أحمد",
    "name:zh": "苏丹阿合麦特宫殿酒店",
    "phone": "+902124580460",
    "tourism": "hotel",
    "website": "https://www.sultanahmetpalace.com/",
    "wikidata": "Q111856837"
  }
},
{
  "type": "node",
  "id": 2527036032,
  "lat": 41.0050228,
  "lon": 28.9715503,
  "tags": {
    "addr:city": "İstanbul",
    "addr:housename": "Oba Hotel",
    "addr:housenumber": "26",
    "addr:postcode": "34122",
    "addr:street": "Özbekler Sokağı",
    "name": "OBA HOTEL",
    "name:ar": "فندق أوبا",
    "phone": "+902125181518",
    "tourism": "hotel",
    "website": "https://www.obahotel.com/",
    "wheelchair": "yes",
    "wikidata": "Q111415861"
  }
},
{
  "type": "node",
  "id": 2599968945,
  "lat": 41.0204757,
  "lon": 28.9285989,
  "tags": {
    "addr:city": "İstanbul",
    "addr:housename": "Hotel Torun",
    "addr:housenumber": "9",
    "addr:postcode": "34093",
    "addr:street": "Hamam Odaları Aralığı",
    "name": "Hotel Torun",
    "name:ar": "فندق تورون",
    "tourism": "hotel"
  }
},
{
  "type": "node",
  "id": 2634934647,
  "lat": 41.0306690,
  "lon": 28.9754341,
  "tags": {
    "name": "Diamond Hotel Taksim",
    "tourism": "hotel"
  }
},
{
  "type": "node",
  "id": 2647384355,
  "lat": 41.0035353,
  "lon": 28.9699653,
  "tags": {
    "addr:city": "İstanbul",
    "addr:housenumber": "37",
    "addr:postcode": "34122",
    "addr:street": "Şehsuvarbey Sokak",
    "name": "Dualis Hotel",
    "name:ar": "فندق دواليس",
    "tourism": "hotel",
    "website": "https://www.booking.com/hotel/tr/dualis-otel.de.html"
  }
},
{
  "type": "node",
  "id": 2647416439,
  "lat": 41.0034950,
  "lon": 28.9705102,
  "tags": {
    "brand": "Best Western",
    "brand:wikidata": "Q830334",
    "brand:wikipedia": "en:Best Western",
    "name": "Best Western Antea Palace Hotel & Spa",
    "name:ar": "فندق بيس ويسترين انتيا",
    "tourism": "hotel"
  }
},
{
  "type": "node",
  "id": 2754513956,
  "lat": 41.0309575,
  "lon": 28.9745130,
  "tags": {
    "addr:street": "Oteller Sk.",
    "name": "The Peak",
    "tourism": "hotel",
    "wikidata": "Q111857206"
  }
},
{
  "type": "node",
  "id": 2760118495,
  "lat": 41.0396402,
  "lon": 28.9828214,
  "tags": {
    "name": "Taximist",
    "tourism": "hotel"
  }
},
{
  "type": "node",
  "id": 2768450499,
  "lat": 41.0130358,
  "lon": 28.9756727,
  "tags": {
    "addr:city": "İstanbul",
    "addr:housenumber": "31",
    "addr:street": "Ebusuud Caddesi",
    "name": "Levni Hotel & SPA",
    "phone": "+90 212 519 1019",
    "stars": "4",
    "tourism": "hotel",
    "website": "https://levnihotel.com/"
  }
},
{
  "type": "node",
  "id": 2894123842,
  "lat": 41.0088293,
  "lon": 28.9594517,
  "tags": {
    "name": "Darkhill Hotel",
    "name:ar": "فندق دارخيل",
    "tourism": "hotel",
    "wheelchair": "yes"
  }
},
{
  "type": "node",
  "id": 2927878650,
  "lat": 41.0142537,
  "lon": 28.9781493,
  "tags": {
    "addr:city": "İstanbul",
    "addr:district": "Fatih",
    "addr:street": "Darüssade Sokak",
    "name": "Orka Royal Hotel",
    "phone": "+90 212 511 85 85",
    "tourism": "hotel",
    "website": "https://www.orkaroyalhotel.com/"
  }
},
{
  "type": "node",
  "id": 2934568249,
  "lat": 41.0127117,
  "lon": 28.9783286,
  "tags": {
    "addr:city": "İstanbul",
    "addr:housenumber": "4",
    "addr:postcode": "34110",
    "addr:street": "Hüdavendigar Caddesi",
    "name": "Hotel Ottoman Luxury",
    "smoking": "outside",
    "tourism": "hotel"
  }
},
{
  "type": "node",
  "id": 2959736391,
  "lat": 41.0354662,
  "lon": 28.9765713,
  "tags": {
    "addr:city": "İstanbul",
    "addr:housenumber": "20",
    "addr:postcode": "34437",
    "addr:street": "Balık Sokak",
    "name": "Corner Suites Taksim",
    "phone": "+905333830790",
    "smoking": "no",
    "tourism": "hotel"
  }
},
{
  "type": "node",
  "id": 2990375618,
  "lat": 40.9865011,
  "lon": 29.0309763,
  "tags": {
    "air_conditioning": "yes",
    "name": "Mernat Otel",
    "tourism": "hotel"
  }
},
{
  "type": "node",
  "id": 2999748088,
  "lat": 41.0458203,
  "lon": 28.9847982,
  "tags": {
    "addr:city": "İstanbul",
    "addr:housenumber": "111",
    "addr:postcode": "34373",
    "addr:street": "Harbiye Çayırı Sokak",
    "designation": "Apartments",
    "name": "Istanbulsuites",
    "tourism": "hotel"
  }
},
{
  "type": "node",
  "id": 3075182583,
  "lat": 41.0054963,
  "lon": 28.9718029,
  "tags": {
    "addr:housenumber": "28",
    "addr:street": "Katip Sinan Camii Sokağı",
    "contact:website": "http://www.hoteltuliphouse.net",
    "name": "Hotel Tulip House",
    "tourism": "hotel",
    "wikidata": "Q111400335"
  }
},
{
  "type": "node",
  "id": 3105263317,
  "lat": 41.0249836,
  "lon": 29.0936908,
  "tags": {
    "addr:city": "İstanbul",
    "name": "Ay Otel",
    "toilets:wheelchair": "no",
    "tourism": "hotel",
    "wheelchair": "yes"
  }
},
{
  "type": "node",
  "id": 3105292588,
  "lat": 41.0042760,
  "lon": 28.9799045,
  "tags": {
    "name": "Romance Hotel",
    "tourism": "hotel"
  }
},
{
  "type": "node",
  "id": 3131825230,
  "lat": 41.0051205,
  "lon": 28.9642529,
  "tags": {
    "name": "Liza Grand Hotel",
    "tourism": "hotel"
  }
},
{
  "type": "node",
  "id": 3143473543,
  "lat": 41.0382911,
  "lon": 28.9842092,
  "tags": {
    "addr:city": "İstanbul",
    "check_date": "2025-01-17",
    "name": "Hotel Grand Zentrum",
    "tourism": "hotel"
  }
},
{
  "type": "node",
  "id": 3153813247,
  "lat": 41.0302749,
  "lon": 28.9734674,
  "tags": {
    "addr:housenumber": "87",
    "addr:street": "Meşrutiyet Caddesi",
    "internet_access": "wlan",
    "internet_access:fee": "no",
    "name": "Pera Rose Hotel",
    "operator": "Goden Tulip",
    "phone": "+90 2122438500",
    "tourism": "hotel",
    "website": "https://www.perarose.com/",
    "wheelchair": "designated",
    "wikidata": "Q111857233"
  }
},
{
  "type": "node",
  "id": 3184138914,
  "lat": 41.0236332,
  "lon": 28.9769721,
  "tags": {
    "check_date": "2025-01-18",
    "name": "The Haze Hotel",
    "tourism": "hotel",
    "wheelchair": "no"
  }
},
{
  "type": "node",
  "id": 3188737340,
  "lat": 41.0253523,
  "lon": 28.9748318,
  "tags": {
    "addr:housenumber": "4/1",
    "addr:street": "Yüksekkaldırım Caddesi",
    "name": "Art Nouveau Galata",
    "phone": "+90 212 251 57 47",
    "tourism": "hotel",
    "website": "http://artnouveaugalata.com/en/"
  }
},
{
  "type": "node",
  "id": 3201096937,
  "lat": 41.0426927,
  "lon": 28.9988155,
  "tags": {
    "addr:housenumber": "75",
    "addr:street": "Süleyman Seba Caddesi",
    "brand": "AC Hotel",
    "brand:wikidata": "Q5653536",
    "building": "hotel",
    "name": "AC Hotel İstanbul Maçka",
    "operator": "AC Hotels",
    "phone": "+902123272828",
    "tourism": "hotel",
    "website": "https://www.marriott.com/hotels/travel/istac-ac-hotel-istanbul-macka/",
    "wikidata": "Q111856822"
  }
},
{
  "type": "node",
  "id": 3209386501,
  "lat": 41.0066528,
  "lon": 28.9719083,
  "tags": {
    "addr:city": "İstanbul",
    "addr:district": "Fatih",
    "addr:street": "Dizdariye medresesi sokak",
    "internet_access": "wlan",
    "internet_access:fee": "no",
    "name": "Paris hotel",
    "tourism": "hotel",
    "website": "http://www.istanbulparishostel.com/",
    "wikidata": "Q111122558"
  }
},
{
  "type": "node",
  "id": 3273342882,
  "lat": 41.0291059,
  "lon": 28.9820993,
  "tags": {
    "addr:city": "İstanbul",
    "addr:housenumber": "26",
    "addr:street": "Defterdar Yokuşu Sokağı",
    "name": "Witt Istanbul Hotel",
    "phone": "+90 212 393 7900",
    "tourism": "hotel",
    "website": "https://wittistanbul.com/"
  }
},
{
  "type": "node",
  "id": 3304405265,
  "lat": 40.9922243,
  "lon": 28.8467080,
  "tags": {
    "addr:city": "İstanbul",
    "addr:housenumber": "220",
    "addr:street": "Adnan Kahveci Bulvari",
    "name": "Kocasinan Airport Hotel",
    "phone": "+90 212 551 39 74",
    "tourism": "hotel",
    "website": "http://kocasinanhotel.com/",
    "wheelchair": "no"
  }
},
{
  "type": "node",
  "id": 3374869261,
  "lat": 41.0675929,
  "lon": 29.0042370,
  "tags": {
    "addr:city": "İstanbul",
    "addr:district": "Şişli",
    "addr:housenumber": "117",
    "addr:neighbourhood": "Esentepe",
    "addr:postcode": "34394",
    "addr:street": "Büyükdere Caddesi",
    "air_conditioning": "yes",
    "brand": "DoubleTree",
    "brand:wikidata": "Q2504643",
    "brand:wikipedia": "en:DoubleTree",
    "building": "yes",
    "contact:facebook": "https://www.facebook.com/doubletreebyhiltonistanbulesentepe",
    "contact:linkedin": "https://www.linkedin.com/company/double-tree-by-hilton-esentepe",
    "contact:twitter": "https://twitter.com/doubletreesntpe",
    "email": "reservation.istanbul@hilton.com",
    "fax": "+90 212 266 66 10",
    "internet_access:fee": "no",
    "name": "DoubleTree by Hilton Istanbul Gayrettepe",
    "official_name": "DoubleTree by Hilton",
    "operator": "Hilton",
    "phone": "+90 212 999 96 00",
    "reservation": "yes",
    "rooms": "104",
    "smoking": "no",
    "stars": "5",
    "start_date": "Jun 27, 2019",
    "tourism": "hotel",
    "website": "https://www.hilton.com/en/hotels/istesdi-doubletree-istanbul-gayrettepe/",
    "wheelchair": "yes"
  }
},
{
  "type": "node",
  "id": 3405207448,
  "lat": 41.0506512,
  "lon": 28.9884000,
  "tags": {
    "addr:city": "İstanbul",
    "addr:street": "Zafer Sokak",
    "name": "Nișantașı My Residence Hotel",
    "tourism": "hotel",
    "wikidata": "Q111998570"
  }
},
{
  "type": "node",
  "id": 3457405618,
  "lat": 41.0225208,
  "lon": 28.9744018,
  "tags": {
    "check_date": "2025-01-18",
    "name": "Hotel Nordstern Galata",
    "tourism": "hotel",
    "wikidata": "Q111857089"
  }
},
{
  "type": "node",
  "id": 3457689618,
  "lat": 41.0120159,
  "lon": 28.9782063,
  "tags": {
    "name": "Amisos Hotel",
    "tourism": "hotel",
    "wheelchair": "no"
  }
},
{
  "type": "node",
  "id": 3457689621,
  "lat": 41.0128034,
  "lon": 28.9776457,
  "tags": {
    "name": "Hotel Sultania",
    "tourism": "hotel",
    "website": "https://www.hotelsultania.com/"
  }
},
{
  "type": "node",
  "id": 3459046124,
  "lat": 41.0339937,
  "lon": 28.9786621,
  "tags": {
    "alt_name:en": "The Public Hotel",
    "name:en": "Hotel The Public",
    "tourism": "hotel",
    "website": "https://www.hotelthepublic.com/",
    "wikidata": "Q111400380"
  }
},
{
  "type": "node",
  "id": 3499083026,
  "lat": 41.0121574,
  "lon": 28.9409040,
  "tags": {
    "name:zh": "安卡大酒店",
    "operator": "Grand Anka",
    "tourism": "hotel",
    "wheelchair": "no"
  }
},
{
  "type": "node",
  "id": 3499085051,
  "lat": 41.0120713,
  "lon": 28.9405810,
  "tags": {
    "addr:city": "İstanbul",
    "addr:district": "Fatih",
    "addr:street": "Turgut Özal Millet caddesi",
    "brand": "Ramada",
    "brand:wikidata": "Q1502859",
    "brand:wikipedia": "en:Ramada",
    "check_date": "2024-08-29",
    "name": "Ramada;Ramada Old City hotel",
    "name:en": "Ramada Hotel",
    "official_name": "Ramada by Wyndham",
    "phone": "02126312020",
    "tourism": "hotel",
    "wheelchair": "no"
  }
},
{
  "type": "node",
  "id": 3499086341,
  "lat": 41.0125480,
  "lon": 28.9394811,
  "tags": {
    "name": "Otel Kaya",
    "tourism": "hotel",
    "wheelchair": "yes"
  }
},
{
  "type": "node",
  "id": 3499092954,
  "lat": 41.0136682,
  "lon": 28.9372267,
  "tags": {
    "name": "Golden Hill",
    "tourism": "hotel",
    "wheelchair": "yes"
  }
},
{
  "type": "node",
  "id": 3499112264,
  "lat": 41.0180480,
  "lon": 28.9265531,
  "tags": {
    "brand": "Holiday Inn",
    "brand:wikidata": "Q2717882",
    "brand:wikipedia": "en:Holiday Inn",
    "name": "Holiday Inn",
    "tourism": "hotel",
    "wheelchair": "yes"
  }
},
{
  "type": "node",
  "id": 3499219842,
  "lat": 41.0129963,
  "lon": 28.9777012,
  "tags": {
    "name": "Hotel Empire Palace",
    "tourism": "hotel",
    "wheelchair": "limited"
  }
},
{
  "type": "node",
  "id": 3499232358,
  "lat": 41.0103030,
  "lon": 28.9587723,
  "tags": {
    "name": "Hotel Belde",
    "tourism": "hotel",
    "wheelchair": "no"
  }
},
{
  "type": "node",
  "id": 3499250060,
  "lat": 41.0107949,
  "lon": 28.9585047,
  "tags": {
    "name": "Metro Hotel",
    "tourism": "hotel",
    "wheelchair": "limited"
  }
},
{
  "type": "node",
  "id": 3507067083,
  "lat": 41.0031486,
  "lon": 28.9757515,
  "tags": {
    "addr:city": "İstanbul",
    "addr:housenumber": "21",
    "addr:postcode": "34122",
    "addr:street": "Oğul Sokak",
    "name": "Katelya Hotel",
    "phone": "+90 212 458 94 94",
    "smoking": "no",
    "tourism": "hotel",
    "website": "http://katelyahotel.com",
    "wikidata": "Q111856841"
  }
},
{
  "type": "node",
  "id": 3556260143,
  "lat": 41.0138550,
  "lon": 28.9789993,
  "tags": {
    "name": "Gulhanepark Hotel",
    "tourism": "hotel"
  }
},
{
  "type": "node",
  "id": 3560449761,
  "lat": 41.0772788,
  "lon": 29.0125930,
  "tags": {
    "addr:city": "İstanbul",
    "addr:housenumber": "177-183",
    "addr:street": "Buyukdere Caddesi",
    "addr:suburb": "Levent",
    "brand": "Wyndham Grand",
    "brand:wikidata": "Q112144849",
    "contact:fax": "+90 212 386 10 10",
    "contact:phone": "+90 212 386 10 00",
    "email": "info@wyndhamgrandlevent.com",
    "name": "Wyndham Grand Istanbul Levent",
    "stars": "5",
    "tourism": "hotel",
    "website": "https://www.wyndhamgrandlevent.com/",
    "wikidata": "Q111400267"
  }
},
{
  "type": "node",
  "id": 3569069194,
  "lat": 41.0188458,
  "lon": 28.9642821,
  "tags": {
    "addr:street": "sabri mehmet soak",
    "name": "Tuana Hotel",
    "operator": "hasan",
    "tourism": "hotel"
  }
},
{
  "type": "node",
  "id": 3583733293,
  "lat": 41.0265518,
  "lon": 28.9746611,
  "tags": {
    "addr:street": "Galip Dede Caddesi",
    "name": "duo galata hotel",
    "tourism": "hotel",
    "wheelchair": "no"
  }
},
{
  "type": "node",
  "id": 3672552825,
  "lat": 41.0122122,
  "lon": 28.9557373,
  "tags": {
    "addr:street": "Gençtürk Caddesi",
    "name": "black birde hotel",
    "opening_hours": "24/7",
    "phone": "+902125117454",
    "tourism": "hotel"
  }
},
{
  "type": "node",
  "id": 3701196101,
  "lat": 41.0741621,
  "lon": 28.9237996,
  "tags": {
    "addr:city": "İstanbul",
    "addr:postcode": "34065",
    "addr:street": "Yesilpinar Mh.Girne Cd. Eyup",
    "name": "Vialand Palace Amusement Park Hotel",
    "note": "Begin your memorable family vacation at all-suite Vialand Palace Hotel. Whether you are travelling for a weekend getaway, business or family vacation our 4-star hotel puts you in the center of it all.",
    "operator": "Helen Otelcilik A.S.",
    "phone": "+90 212 809 0100",
    "smoking": "outside",
    "tourism": "hotel",
    "website": "http://www.vialandpalacehotel.com",
    "wheelchair": "yes"
  }
},
{
  "type": "node",
  "id": 3702768867,
  "lat": 41.0301924,
  "lon": 28.9746778,
  "tags": {
    "name": "Hotel Birol",
    "tourism": "hotel"
  }
},
{
  "type": "node",
  "id": 3763136995,
  "lat": 41.0081102,
  "lon": 28.9569735,
  "tags": {
    "addr:housenumber": "52",
    "addr:street": "Mesihpaşa Caddesi",
    "email": "info@yazturhotel.com",
    "name": "Yaztur Hotel",
    "phone": "+ 90 212 518 70 00",
    "tourism": "hotel",
    "website": "http://www.yazturhotel.com"
  }
},
{
  "type": "node",
  "id": 3780724830,
  "lat": 41.0264838,
  "lon": 28.9779849,
  "tags": {
    "addr:city": "İstanbul",
    "addr:country": "TR",
    "addr:housenumber": "25",
    "addr:postcode": "33400",
    "addr:street": "Lüleci Hendek Sokağı",
    "addr:subdistrict": "Hacimimi",
    "addr:suburb": "Beyoglu",
    "alt_name": "Galata1875",
    "email": "info@galata1875.com",
    "internet_access": "wlan",
    "name": "Galata 1875 Suites",
    "phone": "+90 212 243 51 74",
    "tourism": "hotel",
    "website": "http://galata1875.com/"
  }
},
{
  "type": "node",
  "id": 3806646230,
  "lat": 41.0043155,
  "lon": 28.9791577,
  "tags": {
    "name": "Hotel Aslan İstanbul",
    "operator": "Mert DRAGA",
    "tourism": "hotel"
  }
},
{
  "type": "node",
  "id": 3825504460,
  "lat": 41.0038595,
  "lon": 28.9788778,
  "tags": {
    "name": "Darussaade Istambul Hotel",
    "tourism": "hotel"
  }
},
{
  "type": "node",
  "id": 3844335665,
  "lat": 41.0396201,
  "lon": 28.9663392,
  "tags": {
    "addr:city": "İstanbul",
    "addr:housenumber": "5",
    "addr:postcode": "34440",
    "addr:street": "Piyalepaşa Bulvarı",
    "brand": "DoubleTree",
    "brand:wikidata": "Q2504643",
    "contact:facebook": "https://www.facebook.com/doubletreepiyalepasa",
    "contact:instagram": "https://instagram.com/doubletreepiyalepasa/",
    "contact:twitter": "https://twitter.com/dtpiyalepasa",
    "email": "reservations@dtbhpiyalepasa.com",
    "fax": "+90 212 311 43 33",
    "internet_access": "yes",
    "name": "DoubleTree by Hilton Istanbul - Piyalepasa",
    "official_name": "DoubleTree by Hilton",
    "operator": "Hilton",
    "rooms": "203",
    "smoking": "yes",
    "stars": "5",
    "tourism": "hotel",
    "website": "https://www.hilton.com/en/hotels/istikdi-doubletree-istanbul-piyalepasa/",
    "wheelchair": "yes"
  }
},
{
  "type": "node",
  "id": 3877230353,
  "lat": 41.0303554,
  "lon": 28.9735268,
  "tags": {
    "addr:city": "İstanbul",
    "addr:district": "Beyoğlu",
    "addr:neighbourhood": "Asmalı Mescit Mahallesi",
    "addr:street": "Meşrutiyet Caddesi",
    "name": "Elan Otel",
    "stars": "3",
    "tourism": "hotel",
    "wheelchair": "designated"
  }
},
{
  "type": "node",
  "id": 3877233633,
  "lat": 41.0303138,
  "lon": 28.9744477,
  "tags": {
    "name": "Devman",
    "tourism": "hotel"
  }
},
{
  "type": "node",
  "id": 3880776519,
  "lat": 41.0298589,
  "lon": 28.9732735,
  "tags": {
    "name": "Bristol",
    "tourism": "hotel",
    "wheelchair": "limited"
  }
},
{
  "type": "node",
  "id": 3884918056,
  "lat": 41.0301783,
  "lon": 28.9734413,
  "tags": {
    "name": "Monopol",
    "tourism": "hotel",
    "wheelchair": "limited"
  }
},
{
  "type": "node",
  "id": 3982597451,
  "lat": 41.0240157,
  "lon": 28.9751425,
  "tags": {
    "addr:city": "İstanbul",
    "addr:housenumber": "49",
    "addr:postcode": "34425",
    "addr:street": "Yüksekkaldırım Caddesi",
    "name": "Karakoy Aparts",
    "tourism": "hotel",
    "wikidata": "Q111998580",
    "wikimedia_commons": "Category:Karaköy Aparts"
  }
},
{
  "type": "node",
  "id": 4007731411,
  "lat": 40.9826808,
  "lon": 28.8605226,
  "tags": {
    "addr:city": "Istanbul",
    "addr:housenumber": "6",
    "addr:postcode": "34158",
    "addr:street": "Cevat Dursunoğlu Sk.",
    "alt_name": "Hampton Inn",
    "brand": "Hampton",
    "brand:wikidata": "Q5646230",
    "contact:facebook": "https://www.facebook.com/HamptonByHiltonIstanbulAtakoy",
    "contact:linkedin": "https://www.linkedin.com/company/hampton-by-hilton-istanbul-atak%C3%B6y/",
    "email": "istat_hampton@hilton.com",
    "instagram": "https://www.instagram.com/hamptonbyhiltonatakoy/",
    "internet_access": "wlan",
    "internet_access:fee": "no",
    "name": "Hampton by Hilton Istanbul Atakoy",
    "official_name": "Hampton by Hilton",
    "operator": "Hilton Hotels",
    "phone": "+90 212 409 28 00",
    "rooms": "86",
    "smoking": "no",
    "stars": "4",
    "tourism": "hotel",
    "website": "https://www.hilton.com/en/hotels/istathx-hampton-istanbul-atakoy/",
    "wheelchair": "yes",
    "wikidata": "Q111857337"
  }
},
{
  "type": "node",
  "id": 4053680401,
  "lat": 41.0775289,
  "lon": 29.0230083,
  "tags": {
    "name": "Uygulama Oteli",
    "tourism": "hotel",
    "wikidata": "Q117829278"
  }
},
{
  "type": "node",
  "id": 4059035327,
  "lat": 41.0763385,
  "lon": 29.0270577,
  "tags": {
    "name": "Akmerkez Residence",
    "tourism": "hotel"
  }
},
{
  "type": "node",
  "id": 4086861008,
  "lat": 41.0058542,
  "lon": 28.9813420,
  "tags": {
    "addr:housenumber": "15",
    "addr:street": "akbiyik caddesi terbiyik Sokak 15",
    "beds": "12",
    "email": "info@marmaraguesthouse.com",
    "internet_access": "wlan",
    "name": "Marmara Guesthouse",
    "name:he": "מרמרה גיסטהאוס",
    "phone": "+902126383638",
    "source": "survey",
    "tourism": "hotel",
    "website": "https://www.marmaraguesthouse.com/"
  }
},
{
  "type": "node",
  "id": 4109465400,
  "lat": 41.0082412,
  "lon": 28.9584790,
  "tags": {
    "addr:housenumber": "73",
    "addr:street": "Mesihpaşa Caddesi",
    "name": "Büyük Şahinler",
    "stars": "4",
    "tourism": "hotel",
    "website": "http://www.hotelbuyuksahinler.com.tr/"
  }
},
{
  "type": "node",
  "id": 4126599189,
  "lat": 41.0592712,
  "lon": 29.0102691,
  "tags": {
    "addr:city": "İstanbul",
    "addr:housenumber": "145",
    "addr:postcode": "34349",
    "addr:street": "Barbaros Bulvarı",
    "brand": "Renaissance",
    "brand:wikidata": "Q2143252",
    "name": "Renaissance Istanbul Polat Bosphorus Hotel",
    "operator": "Marriott",
    "tourism": "hotel",
    "wikidata": "Q111400225"
  }
},
{
  "type": "node",
  "id": 4129023491,
  "lat": 41.0067611,
  "lon": 28.9584323,
  "tags": {
    "name": "Dinar Otel",
    "tourism": "hotel"
  }
},
{
  "type": "node",
  "id": 4129048092,
  "lat": 41.0064890,
  "lon": 28.9592303,
  "tags": {
    "name": "Antik Kugu Otel",
    "tourism": "hotel"
  }
},
{
  "type": "node",
  "id": 4129048789,
  "lat": 41.0067211,
  "lon": 28.9585380,
  "tags": {
    "name": "Naz Otel",
    "tourism": "hotel"
  }
},
{
  "type": "node",
  "id": 4134080244,
  "lat": 41.0031669,
  "lon": 28.9746232,
  "tags": {
    "addr:city": "İstanbul",
    "addr:housenumber": "38",
    "addr:postcode": "34122",
    "addr:street": "Mustafa Paşa Sk.",
    "name": "Albinas Hotel Old City",
    "phone": "+90 212 638 0909",
    "tourism": "hotel",
    "website": "https://www.albinashotel.com/",
    "wikidata": "Q111856872"
  }
},
{
  "type": "node",
  "id": 4144148890,
  "lat": 41.0169808,
  "lon": 28.9412137,
  "tags": {
    "addr:city": "İstanbul",
    "addr:district": "Fatih",
    "addr:street": "VATAN caddesi",
    "name": "Dosso Dossi Hotels Downtown",
    "name:ar": "فندق دوسو دوسي",
    "phone": "444 3 726",
    "tourism": "hotel",
    "website": "https://www.dossodossihotels.com"
  }
},
{
  "type": "node",
  "id": 4161579228,
  "lat": 41.0484667,
  "lon": 29.0249307,
  "tags": {
    "name": "Bosphorus Hotel Suit",
    "tourism": "hotel",
    "wheelchair": "no"
  }
},
{
  "type": "node",
  "id": 4162021182,
  "lat": 41.0493636,
  "lon": 29.0262037,
  "tags": {
    "name": "Hotel Princess",
    "tourism": "hotel",
    "wheelchair": "yes"
  }
},
{
  "type": "node",
  "id": 4167313492,
  "lat": 41.0395722,
  "lon": 28.9829172,
  "tags": {
    "name": "Faros Hotel",
    "tourism": "hotel"
  }
},
{
  "type": "node",
  "id": 4180502255,
  "lat": 41.0063123,
  "lon": 28.9704556,
  "tags": {
    "addr:city": "İstanbul",
    "addr:housenumber": "5",
    "addr:postcode": "34126",
    "addr:street": "Satır Sokak",
    "description": "Self catered furnished apartments for rent.",
    "name": "Aslan Apartments Istanbul",
    "operator": "Prinkipo Gayrimenkul Ltd Sti.",
    "smoking": "outside",
    "tourism": "hotel"
  }
},
{
  "type": "node",
  "id": 4201594689,
  "lat": 41.0270026,
  "lon": 28.9744803,
  "tags": {
    "name": "galata life",
    "tourism": "hotel",
    "wheelchair": "no"
  }
},
{
  "type": "node",
  "id": 4208931398,
  "lat": 41.0045400,
  "lon": 28.9731258,
  "tags": {
    "name": "Rumours Inn",
    "tourism": "hotel"
  }
},
{
  "type": "node",
  "id": 4209024092,
  "lat": 41.0311088,
  "lon": 28.9741012,
  "tags": {
    "internet_access": "wlan",
    "internet_access:fee": "no",
    "name": "The Marmara Pera",
    "name:ar": "بيرا ذا مرمرا",
    "stars": "4",
    "tourism": "hotel",
    "wheelchair": "designated"
  }
},
{
  "type": "node",
  "id": 4232293590,
  "lat": 41.0117559,
  "lon": 28.9582551,
  "tags": {
    "name": "Klas",
    "tourism": "hotel"
  }
},
{
  "type": "node",
  "id": 4232298894,
  "lat": 41.0074361,
  "lon": 28.9707258,
  "tags": {
    "name": "Vizyon City",
    "tourism": "hotel"
  }
},
{
  "type": "node",
  "id": 4248233899,
  "lat": 41.0134770,
  "lon": 28.9762482,
  "tags": {
    "addr:city": "İstanbul",
    "addr:district": "Fatih",
    "addr:housenumber": "6",
    "addr:street": "Orhaniye Caddesi",
    "alt_name": "Sehir Hotel Old City",
    "name": "Sehir Hotel",
    "phone": "+90 212 528 60 96",
    "tourism": "hotel",
    "wikidata": "Q111856957"
  }
},
{
  "type": "node",
  "id": 4249014893,
  "lat": 41.0040970,
  "lon": 28.9820784,
  "tags": {
    "addr:city": "İstanbul",
    "addr:district": "Fatih",
    "addr:housenumber": "9",
    "addr:street": "Ahırkapı Caddesi",
    "name": "Cankurtaran Öğretmenevi",
    "phone": "+90 212 5176893;+90 212 5172411",
    "tourism": "hotel",
    "website": "https://cankurtaranogretmenevi.com.tr/"
  }
},
{
  "type": "node",
  "id": 4251738052,
  "lat": 41.0093130,
  "lon": 28.9756934,
  "tags": {
    "addr:city": "İstanbul",
    "addr:housenumber": "21",
    "addr:postcode": "34410",
    "addr:street": "Çatal Çeşme Sokak",
    "name": "White House Hotel",
    "smoking": "no",
    "tourism": "hotel"
  }
},
{
  "type": "node",
  "id": 4252364989,
  "lat": 41.0291446,
  "lon": 28.9733640,
  "tags": {
    "addr:housenumber": "No. 14",
    "addr:postcode": "34430",
    "addr:street": "General Yazgan Sokağı",
    "name": "Adahan Hotel",
    "phone": "+90 212 243 8581",
    "tourism": "hotel",
    "website": "www.adahan@adahanistanbul.com"
  }
},
{
  "type": "node",
  "id": 4261376327,
  "lat": 41.0079935,
  "lon": 28.9542516,
  "tags": {
    "addr:city": "İstanbul",
    "addr:street": "Aksaray Caddesi",
    "name": "Hotel EPHESUS",
    "tourism": "hotel"
  }
},
{
  "type": "node",
  "id": 4264495899,
  "lat": 41.0063149,
  "lon": 28.9578097,
  "tags": {
    "name": "The coach",
    "tourism": "hotel"
  }
},
{
  "type": "node",
  "id": 4265416489,
  "lat": 41.0630862,
  "lon": 29.0012790,
  "tags": {
    "tourism": "hotel"
  }
},
{
  "type": "node",
  "id": 4265867792,
  "lat": 41.0079562,
  "lon": 28.9621129,
  "tags": {
    "name": "hotel wiva",
    "tourism": "hotel"
  }
},
{
  "type": "node",
  "id": 4266037890,
  "lat": 41.0048437,
  "lon": 28.9655105,
  "tags": {
    "internet_access": "wlan",
    "name": "Loor",
    "name:ru": "Лоор",
    "tourism": "hotel"
  }
},
{
  "type": "node",
  "id": 4290840993,
  "lat": 41.0035806,
  "lon": 28.9784869,
  "tags": {
    "name": "best2",
    "tourism": "hotel"
  }
},
{
  "type": "node",
  "id": 4290862890,
  "lat": 41.0040547,
  "lon": 28.9789686,
  "tags": {
    "addr:housenumber": "71",
    "addr:postcode": "34122",
    "addr:street": "Akbıyık Caddesi",
    "brand": "Best Hotels",
    "brand:wikidata": "Q34807905",
    "name": "best point hotel old sity",
    "tourism": "hotel"
  }
},
{
  "type": "node",
  "id": 4291021796,
  "lat": 41.0076016,
  "lon": 28.9655500,
  "tags": {
    "addr:city": "İstanbul",
    "addr:district": "Fatih",
    "addr:housenumber": "25",
    "addr:postcode": "34126",
    "addr:street": "Tiyatro Caddesi",
    "air_conditioning": "yes",
    "bar": "yes",
    "brand": "Radisson",
    "brand:wikidata": "Q1751979",
    "brand:wikipedia": "en: Radisson Hotels",
    "email": "info.president@radisson.com",
    "fax": "+90 212 516 6998",
    "internet_access": "yes",
    "internet_access:fee": "no",
    "name": "Radisson President Beyazit Istanbul",
    "phone": "+90 212 516 6980",
    "rooms": "201",
    "tourism": "hotel",
    "website": "https://www.radissonhotels.com/en-us/hotels/radisson-old-town-istanbul"
  }
},
{
  "type": "node",
  "id": 4296953536,
  "lat": 41.0070433,
  "lon": 28.9560924,
  "tags": {
    "tourism": "hotel"
  }
},
{
  "type": "node",
  "id": 4299450592,
  "lat": 41.0070242,
  "lon": 28.9540681,
  "tags": {
    "name": "Мадрид",
    "tourism": "hotel"
  }
},
{
  "type": "node",
  "id": 4299628509,
  "lat": 41.0031213,
  "lon": 28.9734130,
  "tags": {
    "name": "GLK Premier Mansion suites and spa",
    "phone": "+902126388801",
    "tourism": "hotel"
  }
},
{
  "type": "node",
  "id": 4311617193,
  "lat": 41.0102354,
  "lon": 28.9545876,
  "tags": {
    "addr:street": "Mimarbaşı Sokak",
    "name": "Çağyigit otel",
    "tourism": "hotel"
  }
},
{
  "type": "node",
  "id": 4312139789,
  "lat": 41.0053692,
  "lon": 28.9661760,
  "tags": {
    "name": "ALF HOTEL",
    "tourism": "hotel"
  }
},
{
  "type": "node",
  "id": 4353781521,
  "lat": 41.0543876,
  "lon": 28.9820441,
  "tags": {
    "addr:housenumber": "62 / A",
    "addr:postcode": "34377",
    "addr:street": "ERGENEKON CD. NO: 62 / A FERİKÖY / ŞİŞLİ 34377 İSTANBUL TÜRKİYE",
    "brand": "Mercure",
    "brand:wikidata": "Q1709809",
    "email": "HA4N1@accor.com",
    "internet_access": "wlan",
    "name": "Mercure Hoteles istanbul BOMONTI",
    "opening_hours": "24/7",
    "phone": "+902123686666",
    "tourism": "hotel",
    "website": "http://www.mercure.com",
    "wikidata": "Q111400400"
  }
},
{
  "type": "node",
  "id": 4366207690,
  "lat": 41.0060748,
  "lon": 28.9538729,
  "tags": {
    "addr:housenumber": "no. 5",
    "addr:postcode": "34130",
    "addr:street": "Fabrika Sokak",
    "name": "hotel hilarium fabric",
    "name:tr": "hotel hilarium fabric",
    "tourism": "hotel"
  }
},
{
  "type": "node",
  "id": 4382435195,
  "lat": 41.0391988,
  "lon": 28.8931626,
  "tags": {
    "addr:city": "İstanbul",
    "addr:district": "Bayrampaşa",
    "addr:housenumber": "A4",
    "addr:neighbourhood": "Altıntepsi",
    "addr:postcode": "34035",
    "addr:street": "İstanbul 15 Temmuz Demokrasi Otogarı",
    "email": "info@liderotel.com",
    "internet_access": "wlan",
    "internet_access:fee": "no",
    "name": "Lider OTEL",
    "phone": "+90 539 877 27 80",
    "rooms": "60",
    "tourism": "hotel",
    "website": "https://www.liderotel.com/"
  }
},
{
  "type": "node",
  "id": 4391565090,
  "lat": 41.0139800,
  "lon": 28.8778220,
  "tags": {
    "brand": "Ramada",
    "brand:wikidata": "Q1502859",
    "name": "Ramada Hotel & Suites",
    "name:tr": "Ramada Hotel & Suites",
    "official_name": "Ramada by Wyndham",
    "tourism": "hotel"
  }
},
{
  "type": "node",
  "id": 4416164098,
  "lat": 41.0434298,
  "lon": 28.9837427,
  "tags": {
    "name": "Holas apartment",
    "tourism": "hotel"
  }
},
{
  "type": "node",
  "id": 4419028247,
  "lat": 41.0337252,
  "lon": 28.9758177,
  "tags": {
    "addr:city": "İstanbul",
    "addr:housenumber": "34",
    "addr:postcode": "34435",
    "addr:street": "Meşrutiyet Caddesi",
    "amenity": "fuel",
    "brand": "Occidental",
    "brand:wikidata": "Q15148996",
    "description": "Boutique hotels in Istanbul City Center, Beyoglu.",
    "internet_access": "yes",
    "internet_access:fee": "no",
    "name": "occidental pees hotel Istanbul",
    "operator": "Room Mate",
    "smoking": "no",
    "stars": "4",
    "tourism": "hotel",
    "website": "https://room-matehotels.com/en/kerem/",
    "wheelchair": "limited"
  }
},
{
  "type": "node",
  "id": 4441171893,
  "lat": 41.0487289,
  "lon": 29.0254813,
  "tags": {
    "addr:city": "İstanbul",
    "addr:district": "Beşiktaş",
    "addr:housenumber": "21/2",
    "addr:neighbourhood": "mecidiye mahallesi çarşı ağası sokak no:21/2 beşiktaş",
    "addr:postcode": "34347",
    "addr:street": "Çarşıağası Sokağı",
    "internet_access": "wlan",
    "internet_access:fee": "no",
    "name": "Dilens Bosphorus Hotel",
    "operator": "Hotel",
    "phone": "0533 015 75 73",
    "rooms": "13",
    "tourism": "hotel"
  }
},
{
  "type": "node",
  "id": 4457620690,
  "lat": 41.0048066,
  "lon": 28.9805687,
  "tags": {
    "name": "My room",
    "name:tr": "My room",
    "tourism": "hotel"
  }
},
{
  "type": "node",
  "id": 4457647393,
  "lat": 41.0049312,
  "lon": 28.9805556,
  "tags": {
    "tourism": "hotel"
  }
},
{
  "type": "node",
  "id": 4459920989,
  "lat": 41.0131885,
  "lon": 28.9470281,
  "tags": {
    "internet_access": "wlan",
    "name": "Otel Prima",
    "name:en": "Hotel Prima",
    "tourism": "hotel"
  }
},
{
  "type": "node",
  "id": 4468624491,
  "lat": 41.0117521,
  "lon": 28.9568980,
  "tags": {
    "tourism": "hotel"
  }
},
{
  "type": "node",
  "id": 4486493093,
  "lat": 41.0505122,
  "lon": 28.9857275,
  "tags": {
    "name:en": "New city Hotel",
    "tourism": "hotel"
  }
},
{
  "type": "node",
  "id": 4488013690,
  "lat": 41.0056595,
  "lon": 28.9697127,
  "tags": {
    "internet_access": "wlan",
    "name": "Alhambra Residence",
    "name:en": "Alhambra Residence",
    "name:tr": "Alhambra Residence",
    "tourism": "hotel"
  }
},
{
  "type": "node",
  "id": 4488034089,
  "lat": 41.0056839,
  "lon": 28.9697184,
  "tags": {
    "addr:housenumber": "3",
    "addr:postcode": "34126",
    "addr:street": "Dogramaci Emin Sokak",
    "internet_access": "wlan",
    "name": "Carina Hotel Istanbul",
    "name:en": "Carina Hotel Istanbul",
    "name:tr": "Carina Hotel Istanbul",
    "phone": "+90 212 517 91 56",
    "tourism": "hotel",
    "website": "http://www.carinahotelistanbul.com"
  }
},
{
  "type": "node",
  "id": 4527688899,
  "lat": 41.0390594,
  "lon": 28.9841814,
  "tags": {
    "check_date": "2025-01-17",
    "name": "Seminal Otel",
    "name:en": "Seminal Hotel",
    "tourism": "hotel"
  }
},
{
  "type": "node",
  "id": 4528413792,
  "lat": 41.0126443,
  "lon": 28.9772200,
  "tags": {
    "addr:city": "İstanbul",
    "addr:district": "Fatih",
    "addr:housenumber": "18",
    "addr:postcode": "34110",
    "addr:street": "Ebussuud Caddesi",
    "air_conditioning": "yes",
    "email": "info@erboyhotel.com",
    "internet_access": "wlan",
    "internet_access:fee": "no",
    "name": "Erboy Hotel",
    "name:en": "Erboy Hotel",
    "pets": "no",
    "phone": "+90 212 513 3750",
    "tourism": "hotel",
    "website": "https://www.erboyhotel.com/"
  }
},
{
  "type": "node",
  "id": 4539937490,
  "lat": 41.0145797,
  "lon": 28.9277361,
  "tags": {
    "tourism": "hotel"
  }
},
{
  "type": "node",
  "id": 4543723789,
  "lat": 41.0049622,
  "lon": 28.9648321,
  "tags": {
    "tourism": "hotel"
  }
},
{
  "type": "node",
  "id": 4545845291,
  "lat": 41.0322875,
  "lon": 28.9755908,
  "tags": {
    "addr:housenumber": "55",
    "addr:street": "Meşrutiyet Caddesi",
    "name": "De pera",
    "tourism": "hotel"
  }
},
{
  "type": "node",
  "id": 4577117093,
  "lat": 41.0113492,
  "lon": 28.9586021,
  "tags": {
    "name:ar": "فندق اورين مع الناشد",
    "tourism": "hotel"
  }
},
{
  "type": "node",
  "id": 4579874989,
  "lat": 41.0043130,
  "lon": 28.9662810,
  "tags": {
    "addr:housenumber": "9",
    "addr:street": "Arapzade Ahmet Sokak",
    "tourism": "hotel"
  }
},
{
  "type": "node",
  "id": 4583947589,
  "lat": 41.0478833,
  "lon": 28.9929329,
  "tags": {
    "tourism": "hotel"
  }
},
{
  "type": "node",
  "id": 4607420714,
  "lat": 41.0083680,
  "lon": 28.9759852,
  "tags": {
    "addr:housenumber": "19",
    "addr:street": "Divanyolu Ticarethane Sokak",
    "name": "Ambassador",
    "phone": "+90 212 5120002",
    "tourism": "hotel",
    "website": "http://www.hotelambassador.com"
  }
},
{
  "type": "node",
  "id": 4621010192,
  "lat": 41.0426908,
  "lon": 28.9858539,
  "tags": {
    "addr:housenumber": "5",
    "addr:street": "Turna Sokak",
    "name": "Luce Suites Taksim",
    "name:tr": "Luce Suites Taksim",
    "tourism": "hotel",
    "wikidata": "Q111998550"
  }
},
{
  "type": "node",
  "id": 4623531590,
  "lat": 41.0083523,
  "lon": 28.9762756,
  "tags": {
    "name": "Nomade Hotel",
    "name:en": "Nomade",
    "name:tr": "Nomade",
    "tourism": "hotel"
  }
},
{
  "type": "node",
  "id": 4664136290,
  "lat": 41.0122973,
  "lon": 28.9406535,
  "tags": {
    "tourism": "hotel"
  }
},
{
  "type": "node",
  "id": 4674620089,
  "lat": 41.0056566,
  "lon": 28.9667000,
  "tags": {
    "addr:street": "Gedikpaşa Caddesi",
    "name:en": "Hotel Gedik Pasa Konagi",
    "tourism": "hotel"
  }
},
{
  "type": "node",
  "id": 4679301981,
  "lat": 41.0704085,
  "lon": 28.9884963,
  "tags": {
    "addr:city": "İstanbul",
    "addr:district": "Şişli",
    "addr:housenumber": "57",
    "addr:postcode": "34387",
    "addr:street": "Ayazma Yolu Sk",
    "addr:subdistrict": "İzzetpaşa",
    "internet_access": "wlan",
    "internet_access:fee": "no",
    "name": "Ag Şişli Hotel",
    "operator": "Ag Şişli Hotel",
    "tourism": "hotel"
  }
},
{
  "type": "node",
  "id": 4686516718,
  "lat": 41.0419411,
  "lon": 28.9842013,
  "tags": {
    "addr:neighbourhood": "İnönü mahallesi",
    "addr:street": "Yedi Kuyular Caddesi",
    "air_conditioning": "yes",
    "email": "ha047@accor.com",
    "fax": "+90 212 373 01 99",
    "internet_access": "wlan",
    "internet_access:fee": "no",
    "name": "The Elysium Istanbul MGallery by Sofitel",
    "phone": "+90 212 373 01 00",
    "rooms": "186",
    "smoking": "isolated",
    "stars": "5",
    "tourism": "hotel",
    "website": "https://www.accorhotels.com/tr/hotel-A047-elysium-istanbul,-mgallery-by-sofitel/index.shtml",
    "wheelchair": "yes"
  }
},
{
  "type": "node",
  "id": 4754853921,
  "lat": 41.0341810,
  "lon": 28.9803119,
  "tags": {
    "name:en": "istiklal palas",
    "tourism": "hotel"
  }
},
{
  "type": "node",
  "id": 4776869797,
  "lat": 41.0127403,
  "lon": 28.9576562,
  "tags": {
    "name:ru": "Хамидия",
    "tourism": "hotel"
  }
},
{
  "type": "node",
  "id": 4780999497,
  "lat": 41.0071658,
  "lon": 28.9686879,
  "tags": {
    "name": "Metinhan Hotel",
    "tourism": "hotel"
  }
},
{
  "type": "node",
  "id": 4781043737,
  "lat": 41.0399854,
  "lon": 28.9843805,
  "tags": {
    "addr:city": "İstanbul",
    "addr:district": "Beyoğlu",
    "addr:housenumber": "17",
    "addr:neighbourhood": "Kocatepe Mah.",
    "addr:postcode": "34437",
    "addr:street": "Topcu Caddesi",
    "check_date": "2025-01-17",
    "email": "info@peakstarhotel.com",
    "internet_access": "yes",
    "internet_access:fee": "no",
    "name": "Peak Star Hotel",
    "phone": "+902122351000",
    "rooms": "64",
    "tourism": "hotel",
    "website": "https://peakstarhotel.com/"
  }
},
{
  "type": "node",
  "id": 4785763258,
  "lat": 40.9849713,
  "lon": 29.0217732,
  "tags": {
    "addr:housenumber": "33",
    "addr:street": "Rıza Paşa Sokağı",
    "name": "Miesha Ottoman Palace",
    "tourism": "hotel"
  }
},
{
  "type": "node",
  "id": 4785763262,
  "lat": 40.9828704,
  "lon": 29.0328102,
  "tags": {
    "addr:city": "İstanbul",
    "addr:district": "Kadıköy",
    "addr:housenumber": "96",
    "addr:neighbourhood": "Caferağa Mahallesi",
    "addr:postcode": "34710",
    "addr:street": "Dr. Esat Işık Caddesi",
    "name": "Melek Hotels Moda",
    "tourism": "hotel",
    "website": "https://www.moda.melekhotels.com/",
    "wikidata": "Q111856776"
  }
},
{
  "type": "node",
  "id": 4786066473,
  "lat": 41.0090826,
  "lon": 28.9573666,
  "tags": {
    "addr:housenumber": "6",
    "addr:street": "Koska Caddesi",
    "email": "info@hotelprestige.com.tr",
    "internet_access": "wlan",
    "internet_access:fee": "yes",
    "name": "Prestige",
    "stars": "2",
    "tourism": "hotel"
  }
},
{
  "type": "node",
  "id": 4786093130,
  "lat": 41.0089115,
  "lon": 28.9574041,
  "tags": {
    "name": "Otel Sahinler",
    "name:ru": "Гостиница «Шахинлер»",
    "tourism": "hotel"
  }
},
{
  "type": "node",
  "id": 4786905538,
  "lat": 41.0484882,
  "lon": 28.9872674,
  "tags": {
    "addr:city": "İstanbul",
    "addr:district": "Şişli",
    "addr:housenumber": "1",
    "addr:postcode": "34367",
    "addr:street": "Halaskargazi Caddesi",
    "comment": "handy mobile phone free of charge for guests",
    "email": "info@artshotelistanbul.com",
    "fitness_centre": "yes",
    "internet_access": "wlan",
    "internet_access:fee": "no",
    "internet_access:ssid": "ARTS HOTEL ISTANBUL",
    "name": "Arts Hotel",
    "phone": "+90 212 225 91 00",
    "smoking": "outside",
    "spa": "yes",
    "tourism": "hotel",
    "website": "http://www.artshotelistanbul.com/"
  }
},
{
  "type": "node",
  "id": 4786933543,
  "lat": 41.0519339,
  "lon": 28.9872135,
  "tags": {
    "brand": "Ramada",
    "brand:wikidata": "Q1502859",
    "name": "Ramada Plaza",
    "official_name": "Ramada by Wyndham",
    "tourism": "hotel"
  }
},
{
  "type": "node",
  "id": 4787192051,
  "lat": 41.0515732,
  "lon": 28.9891853,
  "tags": {
    "addr:city": "İstanbul",
    "addr:district": "Şişli",
    "addr:housenumber": "1",
    "addr:postcode": "34371",
    "addr:street": "Bahtiyar Sokağı",
    "name": "Jazz Hotel",
    "tourism": "hotel",
    "website": "http://www.jazzhotel.com.tr/"
  }
},
{
  "type": "node",
  "id": 4812382923,
  "lat": 41.0456755,
  "lon": 28.9874524,
  "tags": {
    "name": "Harbiye Subay Orduevi",
    "name:tr": "Harbiye Subay Orduevi",
    "tourism": "hotel"
  }
},
{
  "type": "node",
  "id": 4815998149,
  "lat": 40.9816241,
  "lon": 29.0311604,
  "tags": {
    "alt_name": "Juliet Rooms & Kitchen",
    "amenity": "restaurant",
    "image": "http://www.julietistanbul.com/images/temp/slider_1_5.jpg",
    "indoor_seating": "yes",
    "name": "Juliet",
    "opening_hours": "Mo-Su 08:00-12:00",
    "outdoor_seating": "yes",
    "tourism": "hotel",
    "website": "http://www.julietistanbul.com/"
  }
},
{
  "type": "node",
  "id": 4872302959,
  "lat": 41.0335899,
  "lon": 28.9766010,
  "tags": {
    "name": "Serene Hotel",
    "tourism": "hotel"
  }
},
{
  "type": "node",
  "id": 4905464721,
  "lat": 41.0093832,
  "lon": 28.9770945,
  "tags": {
    "name:en": "albatros hagia sophia",
    "tourism": "hotel",
    "wikidata": "Q111998465"
  }
},
{
  "type": "node",
  "id": 4907289133,
  "lat": 41.0252126,
  "lon": 29.1054487,
  "tags": {
    "addr:city": "İstanbul",
    "addr:district": "Ümraniye",
    "addr:housenumber": "2",
    "addr:neighbourhood": "Yamanevler Mahallesi",
    "addr:postcode": "34768",
    "addr:street": "Haldun Alagas Caddesi",
    "air_conditioning": "yes",
    "brand": "DoubleTree",
    "brand:wikidata": "Q2504643",
    "brand:wikipedia": "en:Hilton Garden Inn",
    "building": "yes",
    "contact:facebook": "https://www.facebook.com/hgiumraniye",
    "contact:twitter": "https://twitter.com/HiltonUmraniye",
    "internet_access:fee": "no",
    "name": "DoubleTree by Hilton Istanbul Umraniye",
    "name:ru": "Хилтон",
    "official_name": "DoubleTree by Hilton",
    "phone": "+90 216 613 00 00",
    "rooms": "240",
    "smoking": "no",
    "stars": "5",
    "tourism": "hotel",
    "website": "https://www.hilton.com/en/hotels/istumdi-doubletree-istanbul-umraniye/",
    "wheelchair": "yes"
  }
},
{
  "type": "node",
  "id": 4917337921,
  "lat": 41.0034374,
  "lon": 28.9723707,
  "tags": {
    "addr:housenumber": "1",
    "addr:street": "Kaleci Sokak",
    "name": "Basileus Hotel",
    "tourism": "hotel",
    "wikidata": "Q111415844"
  }
},
{
  "type": "node",
  "id": 4928329121,
  "lat": 41.0124237,
  "lon": 28.9483491,
  "tags": {
    "addr:city": "İstanbul",
    "addr:district": "Fatih",
    "addr:street": "Sofular Caddesi",
    "name": "Hotel Zakkum",
    "name:ar": "هوتيل زكوم",
    "phone": "+90 212 525 45 77",
    "tourism": "hotel"
  }
},
{
  "type": "node",
  "id": 4931489421,
  "lat": 41.0083076,
  "lon": 28.9552707,
  "tags": {
    "tourism": "hotel"
  }
},
{
  "type": "node",
  "id": 4992588942,
  "lat": 40.9786705,
  "lon": 28.8831548,
  "tags": {
    "name": "Taşhan Hotel",
    "tourism": "hotel"
  }
},
{
  "type": "node",
  "id": 4996036822,
  "lat": 41.0069000,
  "lon": 28.9636321,
  "tags": {
    "name:en": "Asoss",
    "tourism": "hotel"
  }
},
{
  "type": "node",
  "id": 4997279663,
  "lat": 41.0551255,
  "lon": 28.9908737,
  "tags": {
    "addr:city": "İstanbul",
    "addr:district": "Şişli",
    "addr:housenumber": "6",
    "addr:neighbourhood": "Meşrutiyet Mahallesi",
    "addr:postcode": "34363",
    "addr:street": "Melek Sokak",
    "email": "nisantasispa@waltonhotels.com",
    "name": "Walton Hotels & Spa Nisantasi",
    "phone": "+902122303366",
    "tourism": "hotel",
    "website": "https://nisantasispa.waltonhotels.com/"
  }
},
{
  "type": "node",
  "id": 5008004721,
  "lat": 41.0287317,
  "lon": 28.9368146,
  "tags": {
    "tourism": "hotel"
  }
},
{
  "type": "node",
  "id": 5016175921,
  "lat": 41.0445945,
  "lon": 29.0032168,
  "tags": {
    "addr:housenumber": "#44",
    "addr:street": "Altıntaş Sokağı",
    "name": "Koç Otel",
    "name:tr": "Koç Otel",
    "phone": "+902122610629",
    "tourism": "hotel"
  }
},
{
  "type": "node",
  "id": 5038978821,
  "lat": 41.0650375,
  "lon": 29.0028455,
  "tags": {
    "internet_access": "wlan",
    "name": "Sürmeli İstanbul",
    "name:ar": "فندق سورملي",
    "name:en": "Surmeli Istanbul",
    "name:tr": "Sürmeli İstanbul",
    "phone": "+90 212 272 11 61",
    "tourism": "hotel",
    "website": "https://surmelihotels.com/istanbul/"
  }
},
{
  "type": "node",
  "id": 5041870023,
  "lat": 41.0085324,
  "lon": 28.9501182,
  "tags": {
    "tourism": "hotel"
  }
},
{
  "type": "node",
  "id": 5047421726,
  "lat": 41.0064037,
  "lon": 28.9695231,
  "tags": {
    "tourism": "hotel"
  }
},
{
  "type": "node",
  "id": 5048599926,
  "lat": 41.0135100,
  "lon": 28.9073670,
  "tags": {
    "addr:city": "İstanbul",
    "addr:district": "Zeytinburnu",
    "addr:street": "Mevlana cad",
    "brand": "Mercure",
    "brand:wikidata": "Q1709809",
    "brand:wikipedia": "en:Mercure (hotel)",
    "internet_access": "wlan",
    "name": "Mercure Hotel Topkapı",
    "name:ar": "فندق مركوري",
    "name:en": "Mercure Hotel",
    "name:tr": "Mercure Hotel Topkapı",
    "tourism": "hotel",
    "website": "https://www.tripadvisor.co.uk/7620252?m=19905"
  }
},
{
  "type": "node",
  "id": 5073094763,
  "lat": 41.0127902,
  "lon": 28.9477131,
  "tags": {
    "addr:city": "İstanbul",
    "addr:district": "Fatih",
    "addr:street": "ahmediye caddesi",
    "brand": "Best Hotels",
    "brand:wikidata": "Q34807905",
    "name": "best nobel hotel",
    "name:ar": "اوتيل بيست نوبيل",
    "operator": "24/7",
    "phone": "+90 212 621 50 54",
    "tourism": "hotel"
  }
},
{
  "type": "node",
  "id": 5075929021,
  "lat": 41.0135291,
  "lon": 28.9375187,
  "tags": {
    "addr:city": "İstanbul",
    "addr:district": "Fatih",
    "addr:street": "Turgut Özal Millet caddesi",
    "name": "Golden Hill hotel",
    "name:ar": "فندق غولدين هيل",
    "phone": "02125235454",
    "tourism": "hotel"
  }
},
{
  "type": "node",
  "id": 5075929026,
  "lat": 41.0125112,
  "lon": 28.9396595,
  "tags": {
    "addr:city": "İstanbul",
    "addr:district": "Fatih",
    "addr:street": "Turgut Özal Millet caddesi",
    "name": "Kaya otel",
    "name:ar": "اوتيل كايا",
    "phone": "+90 212 635 88 10",
    "tourism": "hotel"
  }
},
{
  "type": "node",
  "id": 5075960997,
  "lat": 41.0160794,
  "lon": 28.9488535,
  "tags": {
    "addr:city": "İstanbul",
    "addr:district": "Fatih",
    "addr:street": "Feyzullah Efendi Sokak",
    "name": "pianoforte hotel",
    "name:ar": "هوتيل بيانوفورتي",
    "phone": "02125342080",
    "tourism": "hotel"
  }
},
{
  "type": "node",
  "id": 5075961005,
  "lat": 41.0169030,
  "lon": 28.9492750,
  "tags": {
    "addr:city": "İstanbul",
    "addr:district": "Fatih",
    "addr:street": "Feyzullah Efendi Sokak",
    "name": "Tugra hotel",
    "name:ar": "فندق توغرا",
    "phone": "02125134280",
    "tourism": "hotel",
    "wikidata": "Q111998748"
  }
},
{
  "type": "node",
  "id": 5075962050,
  "lat": 41.0118348,
  "lon": 28.9492912,
  "tags": {
    "addr:city": "İstanbul",
    "addr:district": "Fatih",
    "addr:street": "Simitçi Sakir sokak",
    "name": "Hotel Licus",
    "name:ar": "ليكوس هوتيل",
    "phone": "02125236225",
    "tourism": "hotel"
  }
},
{
  "type": "node",
  "id": 5075962054,
  "lat": 41.0122210,
  "lon": 28.9486034,
  "tags": {
    "addr:city": "İstanbul",
    "addr:district": "Fatih",
    "addr:street": "Vatan caddesi",
    "name": "city hotel",
    "name:ar": "فندق المدينة",
    "phone": "02126316695",
    "tourism": "hotel"
  }
},
{
  "type": "node",
  "id": 5075962056,
  "lat": 41.0126070,
  "lon": 28.9483829,
  "tags": {
    "addr:city": "İstanbul",
    "addr:district": "Fatih",
    "addr:street": "Sofular caddesi",
    "name": "hotel prime",
    "name:ar": "برايم هوتيل",
    "phone": "02125250851",
    "tourism": "hotel"
  }
},
{
  "type": "node",
  "id": 5075993813,
  "lat": 41.0127256,
  "lon": 28.9480484,
  "tags": {
    "addr:city": "İstanbul",
    "addr:district": "Fatih",
    "addr:street": "Ahmediye caddesi",
    "name": "Romeo Hotel",
    "name:ar": "اوتيل روميو",
    "phone": "02125210400",
    "tourism": "hotel"
  }
},
{
  "type": "node",
  "id": 5076115929,
  "lat": 40.9941800,
  "lon": 28.9275962,
  "tags": {
    "addr:city": "İstanbul",
    "addr:district": "Fatih",
    "addr:street": "Yedikule istasyon caddesi",
    "name": "Queen seagull hotel",
    "name:ar": "فندق كوين سيغول",
    "phone": "02125303033",
    "tourism": "hotel"
  }
},
{
  "type": "node",
  "id": 5081264681,
  "lat": 41.0103780,
  "lon": 28.9476013,
  "tags": {
    "addr:city": "İstanbul",
    "addr:district": "Fatih",
    "addr:street": "Muratpaşa sokak",
    "name": "Bern Hotel",
    "name:ar": "بيرن هوتيل",
    "phone": "+90 212 635 95 08",
    "tourism": "hotel"
  }
},
{
  "type": "node",
  "id": 5081264694,
  "lat": 41.0132034,
  "lon": 28.9408207,
  "tags": {
    "addr:city": "İstanbul",
    "addr:district": "Fatih",
    "addr:street": "Fındıkzade Sokak",
    "name": "Green Anka Hotel",
    "name:ar": "فندق غرين انكا",
    "phone": "02126311721",
    "tourism": "hotel",
    "wikidata": "Q111857314"
  }
},
{
  "type": "node",
  "id": 5081264695,
  "lat": 41.0127420,
  "lon": 28.9401555,
  "tags": {
    "addr:city": "İstanbul",
    "addr:district": "Fatih",
    "addr:street": "Fındıkzade Sokak",
    "name": "Golden Tahir Hotel",
    "name:ar": "فندق طاهر غولدن",
    "phone": "+90 212 453 99 00",
    "tourism": "hotel"
  }
},
{
  "type": "node",
  "id": 5081264718,
  "lat": 41.0127339,
  "lon": 28.9406061,
  "tags": {
    "addr:city": "İstanbul",
    "addr:district": "Fatih",
    "addr:street": "Emin Ali Yasin sokak",
    "name": "All Season hotel",
    "name:ar": "فندق اول سيسون",
    "phone": "+90 212 635 83 83",
    "tourism": "hotel",
    "wikidata": "Q111857311"
  }
},
{
  "type": "node",
  "id": 5081265938,
  "lat": 41.0121051,
  "lon": 28.9410550,
  "tags": {
    "addr:city": "İstanbul",
    "addr:district": "Fatih",
    "addr:street": "Molla Gürani caddesi",
    "name": "Grand Anka Hotel",
    "name:ar": "هوتيل جراند انكا",
    "phone": "+90 212 635 20 20",
    "tourism": "hotel"
  }
},
{
  "type": "node",
  "id": 5081265955,
  "lat": 41.0112880,
  "lon": 28.9476080,
  "tags": {
    "addr:city": "İstanbul",
    "addr:district": "Fatih",
    "addr:housenumber": "5",
    "addr:neighbourhood": "Molla Gürani Mahallesi",
    "addr:postcode": "34093",
    "addr:street": "Adnan Menderes Vatan Bulvarı",
    "brand": "Grand Vatan Hotel",
    "email": "iletisim@hotelgrandvatan.com",
    "internet_access": "yes",
    "internet_access:fee": "yes",
    "name": "Grand Vatan Hotel",
    "phone": "+90 212 533 90 83",
    "reservation": "yes",
    "rooms": "33",
    "tourism": "hotel",
    "website": "https://www.hotelgrandvatan.com/"
  }
},
{
  "type": "node",
  "id": 5081265958,
  "lat": 41.0116534,
  "lon": 28.9471070,
  "tags": {
    "addr:city": "İstanbul",
    "addr:district": "Fatih",
    "addr:street": "Vatan caddesi",
    "name": "Star City hotel",
    "name:ar": "فندق نجم المدينة",
    "phone": "+90 212 621 58 19",
    "tourism": "hotel"
  }
},
{
  "type": "node",
  "id": 5081265965,
  "lat": 41.0144006,
  "lon": 28.9431792,
  "tags": {
    "addr:city": "İstanbul",
    "addr:district": "Fatih",
    "addr:street": "Vatan caddesi",
    "name": "Ottoman Life Boutique Hotel",
    "phone": "+90 212 635 20 30",
    "tourism": "hotel"
  }
},
{
  "type": "node",
  "id": 5081274112,
  "lat": 41.0110068,
  "lon": 28.9508358,
  "tags": {
    "addr:city": "İstanbul",
    "addr:district": "Fatih",
    "addr:street": "Imam Murat Sokak",
    "name": "Hotel Canan",
    "name:ar": "هوتيل شنان",
    "phone": "+90 212 635 29 55",
    "tourism": "hotel"
  }
},
{
  "type": "node",
  "id": 5081274119,
  "lat": 41.0113831,
  "lon": 28.9526441,
  "tags": {
    "addr:city": "İstanbul",
    "addr:district": "Fatih",
    "addr:street": "Çıngıraklı Bostan Sokak",
    "name": "Kaya Madrid hotel",
    "name:ar": "هوتيل كايا مدريد",
    "tourism": "hotel"
  }
},
{
  "type": "node",
  "id": 5081274120,
  "lat": 41.0107269,
  "lon": 28.9512657,
  "tags": {
    "addr:city": "İstanbul",
    "addr:district": "Fatih",
    "addr:street": "Şekerci Sokak",
    "name": "Hotel Fatih",
    "name:ar": "هوتيل فاتح",
    "phone": "02125332831",
    "tourism": "hotel"
  }
},
{
  "type": "node",
  "id": 5081274324,
  "lat": 41.0105885,
  "lon": 28.9512491,
  "tags": {
    "addr:city": "İstanbul",
    "addr:district": "Fatih",
    "addr:street": "Şekerci Sokak",
    "name": "Hotel Ceren",
    "name:ar": "جيرين هوتيل",
    "phone": "02125325560",
    "tourism": "hotel"
  }
},
{
  "type": "node",
  "id": 5081274325,
  "lat": 41.0104316,
  "lon": 28.9514436,
  "tags": {
    "addr:city": "İstanbul",
    "addr:district": "Fatih",
    "addr:street": "Şekerci Sokak",
    "name": "Hotel Melita",
    "name:ar": "هوتيل مليتا",
    "phone": "02124920170",
    "tourism": "hotel",
    "wikidata": "Q111998736"
  }
},
{
  "type": "node",
  "id": 5081274331,
  "lat": 41.0099641,
  "lon": 28.9515536,
  "tags": {
    "addr:city": "İstanbul",
    "addr:district": "Fatih",
    "addr:street": "Turgut Özal Millet caddesi",
    "name": "Hotel Seren",
    "name:ar": "هوتيل سيرين",
    "phone": "+90 212 635 28 49",
    "tourism": "hotel"
  }
},
{
  "type": "node",
  "id": 5081274332,
  "lat": 41.0102424,
  "lon": 28.9514449,
  "tags": {
    "addr:city": "İstanbul",
    "addr:district": "Fatih",
    "addr:street": "Turgut Özal Millet caddesi",
    "name": "Hotel Ümit",
    "name:ar": "هوتيل اوميت",
    "phone": "+90 212 632 77 80",
    "tourism": "hotel"
  }
},
{
  "type": "node",
  "id": 5081274333,
  "lat": 41.0099368,
  "lon": 28.9518566,
  "tags": {
    "addr:city": "İstanbul",
    "addr:district": "Fatih",
    "addr:street": "Turgut Özal Millet caddesi",
    "name": "Hotel Metropol",
    "name:ar": "هوتيل متروبول",
    "phone": "+90 212 621 54 38",
    "tourism": "hotel"
  }
},
{
  "type": "node",
  "id": 5081445081,
  "lat": 41.0286838,
  "lon": 28.9529407,
  "tags": {
    "addr:city": "İstanbul",
    "addr:district": "Fatih",
    "addr:street": "Abdülezelpaşa Caddesi",
    "name": "Hotel Troya Balat",
    "name:ar": "اوتيل ترويا بالات",
    "tourism": "hotel"
  }
},
{
  "type": "node",
  "id": 5086061052,
  "lat": 41.0265545,
  "lon": 28.9556423,
  "tags": {
    "addr:city": "İstanbul",
    "addr:district": "Fatih",
    "addr:street": "Küçük Mustafa Paşa Caddesi",
    "name": "Lotus Hotel Istanbul",
    "name:ar": "اوتيل لوتوس استنبول",
    "tourism": "hotel",
    "wikidata": "Q111122585"
  }
},
{
  "type": "node",
  "id": 5086061059,
  "lat": 41.0264413,
  "lon": 28.9560733,
  "tags": {
    "addr:city": "İstanbul",
    "addr:district": "Fatih",
    "addr:street": "Kara Sarıklı Sokak",
    "amenity": "motel",
    "name": "Yılmazlar Hotel",
    "name:ar": "اوتيل يلمزلار",
    "operator:type": "private",
    "tourism": "hotel"
  }
},
{
  "type": "node",
  "id": 5086061065,
  "lat": 41.0260879,
  "lon": 28.9555703,
  "tags": {
    "addr:city": "İstanbul",
    "addr:district": "Fatih",
    "addr:street": "Kara Sarıklı Sokak",
    "name": "İslamoğlu Hotel",
    "name:ar": "اوتيل اسماعيل اوغلو",
    "tourism": "hotel"
  }
},
{
  "type": "node",
  "id": 5099040178,
  "lat": 41.0076899,
  "lon": 28.9469244,
  "tags": {
    "addr:city": "İstanbul",
    "addr:district": "Fatih",
    "addr:street": "Kürkçübaşı Külhanı Sokağı",
    "name": "Yalçın Hotel",
    "name:ar": "فندق يالجين",
    "phone": "+90 212 632 85 72",
    "tourism": "hotel"
  }
},
{
  "type": "node",
  "id": 5099056205,
  "lat": 41.0070038,
  "lon": 28.9472526,
  "tags": {
    "addr:city": "İstanbul",
    "addr:district": "Fatih",
    "addr:street": "Küçük Langa Caddesi",
    "name": "Yüksel İstanbul Yenikapı",
    "name:ar": "فندق يوكسال إسطنبول",
    "phone": "+90 212 588 46 47",
    "tourism": "hotel",
    "wikidata": "Q111998744"
  }
},
{
  "type": "node",
  "id": 5099060691,
  "lat": 41.0071334,
  "lon": 28.9495238,
  "tags": {
    "addr:city": "İstanbul",
    "addr:district": "Fatih",
    "addr:street": "Küçük langa aralığı caddesi",
    "name": "Otel Avlonya",
    "name:ar": "فندق أولونيا",
    "tourism": "hotel"
  }
},
{
  "type": "node",
  "id": 5099060692,
  "lat": 41.0071718,
  "lon": 28.9500872,
  "tags": {
    "addr:city": "İstanbul",
    "addr:district": "Fatih",
    "name": "Otel fuar",
    "name:ar": "فندق فؤار",
    "tourism": "hotel"
  }
},
{
  "type": "node",
  "id": 5099060697,
  "lat": 41.0069687,
  "lon": 28.9497910,
  "tags": {
    "addr:city": "İstanbul",
    "addr:district": "Fatih",
    "addr:street": "Küçük langa caddesi",
    "name": "Mekke otel",
    "name:ar": "فندق مكة",
    "tourism": "hotel"
  }
},
{
  "type": "node",
  "id": 5099060707,
  "lat": 41.0068061,
  "lon": 28.9515411,
  "tags": {
    "addr:city": "İstanbul",
    "addr:district": "Fatih",
    "addr:street": "Valide cami sokağı",
    "name": "Hotel ay istanbul",
    "name:ar": "فندق آي إسطنبول",
    "tourism": "hotel"
  }
},
{
  "type": "node",
  "id": 5099060710,
  "lat": 41.0079857,
  "lon": 28.9515265,
  "tags": {
    "addr:city": "İstanbul",
    "addr:district": "Fatih",
    "addr:street": "Valide cami sokağı",
    "name": "Baran hotel",
    "name:ar": "فندق باران",
    "tourism": "hotel"
  }
},
{
  "type": "node",
  "id": 5099060711,
  "lat": 41.0080815,
  "lon": 28.9515104,
  "tags": {
    "addr:city": "İstanbul",
    "addr:district": "Fatih",
    "addr:street": "Valide cami sokağı",
    "name": "Hotel tura",
    "name:ar": "فندق تورا",
    "tourism": "hotel"
  }
},
{
  "type": "node",
  "id": 5099060714,
  "lat": 41.0081835,
  "lon": 28.9515426,
  "tags": {
    "addr:city": "İstanbul",
    "addr:district": "Fatih",
    "addr:street": "İnkilap caddesi",
    "name": "Hotel karaman",
    "name:ar": "فندق كارامان",
    "tourism": "hotel"
  }
},
{
  "type": "node",
  "id": 5099062122,
  "lat": 41.0077707,
  "lon": 28.9502679,
  "tags": {
    "addr:city": "İstanbul",
    "addr:district": "Fatih",
    "addr:street": "Namık kemal caddesi",
    "name": "Grand oruç hotel",
    "name:ar": "فندق غراند أوروج",
    "tourism": "hotel"
  }
},
{
  "type": "node",
  "id": 5099062125,
  "lat": 41.0071081,
  "lon": 28.9502658,
  "tags": {
    "addr:city": "İstanbul",
    "addr:district": "Fatih",
    "addr:street": "Namık kemal caddesi",
    "name": "Otel hobby",
    "name:ar": "فندق هوبي",
    "phone": "02125850095",
    "tourism": "hotel"
  }
},
{
  "type": "node",
  "id": 5099062126,
  "lat": 41.0070045,
  "lon": 28.9507154,
  "tags": {
    "addr:city": "İstanbul",
    "addr:district": "Fatih",
    "addr:street": "Küçük langa caddesi",
    "name": "The port hotel",
    "name:ar": "فندق ذا بورت",
    "tourism": "hotel"
  }
},
{
  "type": "node",
  "id": 5099062128,
  "lat": 41.0070245,
  "lon": 28.9511012,
  "tags": {
    "addr:city": "İstanbul",
    "addr:district": "Fatih",
    "addr:street": "Küçük langa caddesi",
    "name": "Hotel bilir",
    "name:ar": "فندق بيلير",
    "phone": "02125851754",
    "tourism": "hotel"
  }
},
{
  "type": "node",
  "id": 5099062129,
  "lat": 41.0070245,
  "lon": 28.9515004,
  "tags": {
    "addr:city": "İstanbul",
    "addr:district": "Fatih",
    "addr:street": "Küçük langa caddesi",
    "name": "Hotel life",
    "name:ar": "فندق لايف",
    "tourism": "hotel"
  }
},
{
  "type": "node",
  "id": 5099062135,
  "lat": 41.0076270,
  "lon": 28.9515536,
  "tags": {
    "addr:city": "İstanbul",
    "addr:district": "Fatih",
    "addr:street": "Tiryaki hasanpaşa sokağı",
    "name": "Hotel öz villa",
    "name:ar": "فندق أوز فيلا",
    "tourism": "hotel"
  }
},
{
  "type": "node",
  "id": 5099062136,
  "lat": 41.0076571,
  "lon": 28.9507287,
  "tags": {
    "addr:city": "İstanbul",
    "addr:district": "Fatih",
    "addr:street": "Tiryaki hasanpaşa sokağı",
    "name": "Fors Hotel",
    "name:ar": "فندق فورس",
    "tourism": "hotel"
  }
},
{
  "type": "node",
  "id": 5099062149,
  "lat": 41.0076672,
  "lon": 28.9490255,
  "tags": {
    "addr:city": "İstanbul",
    "addr:district": "Fatih",
    "addr:street": "Manastırlı rıfat sokağı",
    "name": "Hotel ümit 2",
    "name:ar": "فندق أوميت",
    "tourism": "hotel"
  }
},
{
  "type": "node",
  "id": 5099062152,
  "lat": 41.0075065,
  "lon": 28.9489058,
  "tags": {
    "addr:city": "İstanbul",
    "addr:district": "Fatih",
    "addr:street": "Manastırlı rıfat sokağı",
    "name": "Alahan hotel",
    "name:ar": "فندق ألاهان",
    "tourism": "hotel"
  }
},
{
  "type": "node",
  "id": 5099062156,
  "lat": 41.0075129,
  "lon": 28.9485454,
  "tags": {
    "addr:city": "İstanbul",
    "addr:district": "Fatih",
    "addr:street": "Manastırlı rıfat sokağı",
    "name": "Rouge noire hotel",
    "name:ar": "فندق روج نوار",
    "tourism": "hotel"
  }
},
{
  "type": "node",
  "id": 5099062157,
  "lat": 41.0074937,
  "lon": 28.9481633,
  "tags": {
    "addr:city": "İstanbul",
    "addr:district": "Fatih",
    "addr:street": "Manastırlı rıfat sokağı",
    "name": "The city hotel",
    "name:ar": "فندق ذا سيتي",
    "tourism": "hotel",
    "wikidata": "Q111857303"
  }
},
{
  "type": "node",
  "id": 5099062159,
  "lat": 41.0076589,
  "lon": 28.9479249,
  "tags": {
    "addr:city": "İstanbul",
    "addr:district": "Fatih",
    "addr:street": "Kürkçübaşı külhanı sokağı",
    "name": "Hotel Doğan",
    "name:ar": "فندق دوغان",
    "tourism": "hotel"
  }
},
{
  "type": "node",
  "id": 5099065421,
  "lat": 41.0074665,
  "lon": 28.9500892,
  "tags": {
    "addr:city": "İstanbul",
    "addr:district": "Fatih",
    "addr:street": "Namık kemal caddesi",
    "name": "Günay Hotel",
    "name:ar": "فندق غوناي",
    "phone": "+90 212 632 18 19",
    "tourism": "hotel"
  }
},
{
  "type": "node",
  "id": 5099065424,
  "lat": 41.0078392,
  "lon": 28.9500734,
  "tags": {
    "addr:city": "İstanbul",
    "addr:district": "Fatih",
    "addr:street": "Namık kemal caddesi",
    "name": "Lal Hotel",
    "name:ar": "فندق لال",
    "phone": "+90 212 586 69 42",
    "tourism": "hotel"
  }
},
{
  "type": "node",
  "id": 5099065430,
  "lat": 41.0084599,
  "lon": 28.9500312,
  "tags": {
    "addr:city": "İstanbul",
    "addr:district": "Fatih",
    "addr:street": "Namık kemal caddesi",
    "name": "Esen Palas Hote",
    "name:ar": "فندق أسن بالاس",
    "phone": "+90 212 530 77 76",
    "tourism": "hotel"
  }
},
{
  "type": "node",
  "id": 5099065431,
  "lat": 41.0085324,
  "lon": 28.9500665,
  "tags": {
    "addr:city": "İstanbul",
    "addr:district": "Fatih",
    "addr:street": "Namık kemal caddesi",
    "name": "Hotel Nayla",
    "name:ar": "فندق نايلا",
    "phone": "+90 212 587 53 53",
    "tourism": "hotel"
  }
},
{
  "type": "node",
  "id": 5099065435,
  "lat": 41.0087314,
  "lon": 28.9500509,
  "tags": {
    "addr:city": "İstanbul",
    "addr:district": "Fatih",
    "addr:street": "Namık kemal caddesi",
    "name": "Flamingo Hotel",
    "name:ar": "فندق فلامينغو",
    "phone": "+90 212 588 45 00",
    "tourism": "hotel"
  }
},
{
  "type": "node",
  "id": 5099065452,
  "lat": 41.0089072,
  "lon": 28.9479091,
  "tags": {
    "addr:city": "İstanbul",
    "addr:district": "Fatih",
    "addr:street": "Cerrahpaşa caddesi",
    "name": "Hotel Kayışı",
    "name:ar": "فندق كاييشي",
    "phone": "0212) 589 00 86",
    "tourism": "hotel"
  }
},
{
  "type": "node",
  "id": 5099065457,
  "lat": 41.0087734,
  "lon": 28.9474782,
  "tags": {
    "addr:city": "İstanbul",
    "addr:district": "Fatih",
    "addr:street": "Cerrahpaşa caddesi",
    "name": "LA GARDEN HOTEL",
    "name:ar": "فندق لا غاردن",
    "phone": "+90 212 530 16 90",
    "tourism": "hotel"
  }
},
{
  "type": "node",
  "id": 5099065460,
  "lat": 41.0086913,
  "lon": 28.9473023,
  "tags": {
    "addr:city": "İstanbul",
    "addr:district": "Fatih",
    "addr:postcode": "34096",
    "addr:street": "Cerrahpașa Caddesi",
    "name": "Hotel Nice",
    "name:ar": "فندق نايس",
    "name:ru": "Отель Nice",
    "phone": "+90 212 589 60 98",
    "tourism": "hotel"
  }
},
{
  "type": "node",
  "id": 5099065470,
  "lat": 41.0083955,
  "lon": 28.9464324,
  "tags": {
    "addr:city": "İstanbul",
    "addr:district": "Fatih",
    "addr:street": "Cerrahpaşa caddesi",
    "name": "Hotel The Ferah",
    "name:ar": "فندق ذا فيراه",
    "phone": "+90 212 633 27 20",
    "tourism": "hotel"
  }
},
{
  "type": "node",
  "id": 5100825069,
  "lat": 41.0218334,
  "lon": 28.9272360,
  "tags": {
    "addr:city": "İstanbul",
    "addr:district": "Fatih",
    "addr:street": "Beyazıtağa Fırını Sokağı",
    "name": "Hotel Surucu",
    "name:ar": "فندق سوروجو",
    "phone": "+90 212 525 50 29",
    "tourism": "hotel"
  }
},
{
  "type": "node",
  "id": 5100825079,
  "lat": 41.0212068,
  "lon": 28.9276344,
  "tags": {
    "addr:city": "İstanbul",
    "addr:district": "Fatih",
    "addr:street": "Topkapı Caddesi",
    "name": "Hotel özvural",
    "name:ar": "فندق أوزفورال",
    "tourism": "hotel"
  }
},
{
  "type": "node",
  "id": 5100825080,
  "lat": 41.0211863,
  "lon": 28.9277848,
  "tags": {
    "addr:city": "İstanbul",
    "addr:district": "Fatih",
    "addr:street": "Topkapı Caddesi",
    "name": "Hayat hotel",
    "name:ar": "فندق حياة",
    "phone": "+90 212 525 55 05",
    "tourism": "hotel"
  }
},
{
  "type": "node",
  "id": 5103810755,
  "lat": 41.0206875,
  "lon": 28.9266721,
  "tags": {
    "addr:city": "İstanbul",
    "addr:district": "Fatih",
    "addr:street": "Kalaycı ali sokağı",
    "name": "Hotel Ozvural",
    "name:ar": "فندق أوزفورال",
    "phone": "+90 212 523 80 13",
    "tourism": "hotel"
  }
},
{
  "type": "node",
  "id": 5103810756,
  "lat": 41.0207806,
  "lon": 28.9266613,
  "tags": {
    "addr:city": "İstanbul",
    "addr:district": "Fatih",
    "addr:street": "Topkapı Caddesi",
    "name": "Hotel Golden gate",
    "name:ar": "فندق غولدن غيت",
    "phone": "+90 212 635 90 90",
    "tourism": "hotel"
  }
},
{
  "type": "node",
  "id": 5103810757,
  "lat": 41.0207621,
  "lon": 28.9270750,
  "tags": {
    "addr:city": "İstanbul",
    "addr:district": "Fatih",
    "addr:street": "Topkapı Caddesi",
    "name": "Hotel Yuvam",
    "name:ar": "فندق يوفام",
    "phone": "+90 212 523 77 64",
    "tourism": "hotel"
  }
},
{
  "type": "node",
  "id": 5103810765,
  "lat": 41.0201935,
  "lon": 28.9285237,
  "tags": {
    "addr:city": "İstanbul",
    "addr:district": "Fatih",
    "addr:street": "Hamam Odaları Aralığı",
    "name": "Otel Dünya",
    "name:ar": "فندق دنيا",
    "phone": "+90 212 521 65 06",
    "tourism": "hotel"
  }
},
{
  "type": "node",
  "id": 5103810766,
  "lat": 41.0202462,
  "lon": 28.9285315,
  "tags": {
    "addr:city": "İstanbul",
    "addr:district": "Fatih",
    "addr:street": "Hamam Odaları Aralığı",
    "name": "Hotel Ruya",
    "name:ar": "فندق رويا",
    "phone": "+90 212 523 55 26",
    "tourism": "hotel"
  }
},
{
  "type": "node",
  "id": 5103810767,
  "lat": 41.0203091,
  "lon": 28.9285445,
  "tags": {
    "addr:city": "İstanbul",
    "addr:district": "Fatih",
    "addr:street": "Hamam Odaları Aralığı",
    "name": "Doğruyol Hotel",
    "name:ar": "فندق دوغرويول",
    "phone": "+90 212 523 22 12",
    "tourism": "hotel"
  }
},
{
  "type": "node",
  "id": 5103810768,
  "lat": 41.0203644,
  "lon": 28.9285554,
  "tags": {
    "addr:city": "İstanbul",
    "addr:district": "Fatih",
    "addr:street": "Hamam Odaları Aralığı",
    "name": "Otel Pelda",
    "name:ar": "فندق بيلدا",
    "tourism": "hotel"
  }
},
{
  "type": "node",
  "id": 5103810769,
  "lat": 41.0204652,
  "lon": 28.9285442,
  "tags": {
    "addr:city": "İstanbul",
    "addr:district": "Fatih",
    "addr:street": "Topkapı Caddesi",
    "name": "Torun Hotel",
    "name:ar": "فندق تورون",
    "phone": "+90 212 534 45 50",
    "tourism": "hotel"
  }
},
{
  "type": "node",
  "id": 5103810770,
  "lat": 41.0204968,
  "lon": 28.9283671,
  "tags": {
    "addr:city": "İstanbul",
    "addr:district": "Fatih",
    "addr:street": "Topkapı Caddesi",
    "name": "Yavuz Hotel",
    "name:ar": "فندق ياووز",
    "phone": "+90 212 635 85 80",
    "tourism": "hotel"
  }
},
{
  "type": "node",
  "id": 5103810775,
  "lat": 41.0200755,
  "lon": 28.9284985,
  "tags": {
    "addr:city": "İstanbul",
    "addr:district": "Fatih",
    "addr:street": "Hamam Odaları Sokağı",
    "name": "Huzur Otel",
    "name:ar": "فندق هوزور",
    "phone": "+90 212 524 03 65",
    "tourism": "hotel"
  }
},
{
  "type": "node",
  "id": 5103810779,
  "lat": 41.0201408,
  "lon": 28.9278746,
  "tags": {
    "addr:city": "İstanbul",
    "addr:district": "Fatih",
    "addr:street": "Topkapı Caddesi",
    "name": "Pamir Otel",
    "name:ar": "فندق بامير",
    "tourism": "hotel"
  }
},
{
  "type": "node",
  "id": 5103810783,
  "lat": 41.0198447,
  "lon": 28.9284559,
  "tags": {
    "addr:city": "İstanbul",
    "addr:district": "Fatih",
    "addr:street": "Hamam Odaları Çıkmazı",
    "name": "Reis Otel",
    "name:ar": "فندق رئيس",
    "phone": "+90 212 631 20 03",
    "tourism": "hotel"
  }
},
{
  "type": "node",
  "id": 5103810791,
  "lat": 41.0191758,
  "lon": 28.9282627,
  "tags": {
    "addr:city": "İstanbul",
    "addr:district": "Fatih",
    "addr:street": "Topkapı Caddesi",
    "name": "Topkapi Inter Istanbul Hotel",
    "name:ar": "فندق توبكابي إنتر اسطنبول",
    "phone": "+90 212 491 23 00",
    "tourism": "hotel",
    "wikidata": "Q111857321"
  }
},
{
  "type": "node",
  "id": 5103810792,
  "lat": 41.0190576,
  "lon": 28.9282081,
  "tags": {
    "addr:city": "İstanbul",
    "addr:district": "Fatih",
    "addr:street": "Topkapı Caddesi",
    "name": "Topkapı Sabena Hotel",
    "name:ar": "فندق توب كابي سابينا",
    "phone": "+90 212 533 93 32",
    "tourism": "hotel"
  }
},
{
  "type": "node",
  "id": 5103810794,
  "lat": 41.0188792,
  "lon": 28.9275385,
  "tags": {
    "addr:city": "İstanbul",
    "addr:district": "Fatih",
    "addr:street": "Topkapı Caddesi",
    "name": "Hanna Hotel",
    "name:ar": "فندق هننا",
    "phone": "+90 212 444 56 48",
    "tourism": "hotel",
    "wikidata": "Q111998757"
  }
},
{
  "type": "node",
  "id": 5103810799,
  "lat": 41.0198437,
  "lon": 28.9257934,
  "tags": {
    "addr:city": "İstanbul",
    "addr:district": "Fatih",
    "addr:street": "Turgut özal millet caddesi",
    "name": "City Wall Hotel",
    "name:ar": "فندق سيتي وول",
    "phone": "+90 212 635 10 51",
    "tourism": "hotel"
  }
},
{
  "type": "node",
  "id": 5103810800,
  "lat": 41.0192052,
  "lon": 28.9264425,
  "tags": {
    "addr:city": "İstanbul",
    "addr:district": "Fatih",
    "addr:street": "Turgut özal millet caddesi",
    "name": "Eresin Hotels - Topkapı",
    "name:ar": "فندق أرسين توبكابي",
    "phone": "+90 212 631 12 12",
    "tourism": "hotel",
    "wikidata": "Q111400414"
  }
},
{
  "type": "node",
  "id": 5103810811,
  "lat": 41.0173813,
  "lon": 28.9301418,
  "tags": {
    "addr:city": "İstanbul",
    "addr:district": "Fatih",
    "addr:street": "Pazar Tekkesi Sokağı",
    "name": "Durah 3 Aparthotel",
    "name:ar": "فندق درره 3",
    "phone": "Pazar Tekkesi S",
    "tourism": "hotel"
  }
},
{
  "type": "node",
  "id": 5106111906,
  "lat": 41.0097241,
  "lon": 28.9548769,
  "tags": {
    "addr:city": "İstanbul",
    "addr:district": "Fatih",
    "addr:street": "Ordu Caddesi",
    "name": "Hotel Sorriso",
    "name:ar": "فندق سوريسو",
    "operator": "Private Hotel",
    "tourism": "hotel",
    "wikidata": "Q111857286"
  }
},
{
  "type": "node",
  "id": 5106112121,
  "lat": 41.0117751,
  "lon": 28.9584601,
  "tags": {
    "addr:city": "İstanbul",
    "addr:district": "Fatih",
    "addr:street": "Vidinli Tevfikpaşa Caddesi",
    "name": "Hotel Mosaic",
    "name:ar": "فندق موزايك",
    "operator": "Private Hotel",
    "tourism": "hotel"
  }
},
{
  "type": "node",
  "id": 5106112124,
  "lat": 41.0128483,
  "lon": 28.9574035,
  "tags": {
    "addr:city": "İstanbul",
    "addr:district": "Fatih",
    "addr:street": "Şehzadebaşı Caddesi",
    "name": "Grand Hotel Gülsoy",
    "name:ar": "فندق غراند هوتيل غولسوي",
    "operator": "Private Hotel",
    "tourism": "hotel"
  }
},
{
  "type": "node",
  "id": 5106112129,
  "lat": 41.0120051,
  "lon": 28.9536997,
  "tags": {
    "addr:city": "İstanbul",
    "addr:district": "Fatih",
    "addr:street": "Atatürk Bulvarı",
    "name": "Bulvar Palas Hotel",
    "name:ar": "فندق بولفر بلاس",
    "operator": "Private Hotel",
    "tourism": "hotel"
  }
},
{
  "type": "node",
  "id": 5106112134,
  "lat": 41.0103294,
  "lon": 28.9537246,
  "tags": {
    "addr:city": "İstanbul",
    "addr:district": "Fatih",
    "addr:street": "Atatürk Bulvarı",
    "name": "Falay Yavuz Hotel",
    "name:ar": "فندق فلاي ياوز",
    "operator": "Private Hotel",
    "tourism": "hotel"
  }
},
{
  "type": "node",
  "id": 5106112137,
  "lat": 41.0100659,
  "lon": 28.9536992,
  "tags": {
    "addr:city": "İstanbul",
    "addr:district": "Fatih",
    "addr:street": "Atatürk Bulvarı",
    "name": "Grand Durmaz Hotel",
    "name:ar": "فندق غراند دورماز",
    "operator": "Private Hotel",
    "tourism": "hotel",
    "wikidata": "Q111857297"
  }
},
{
  "type": "node",
  "id": 5106112138,
  "lat": 41.0099394,
  "lon": 28.9537260,
  "tags": {
    "addr:city": "İstanbul",
    "addr:district": "Fatih",
    "addr:street": "Atatürk Bulvarı",
    "name": "Corner Hotel",
    "name:ar": "كورنر هوتيل",
    "operator": "Private Hotel",
    "tourism": "hotel"
  }
},
{
  "type": "node",
  "id": 5106118223,
  "lat": 41.0120053,
  "lon": 28.9566135,
  "tags": {
    "addr:city": "İstanbul",
    "addr:district": "Fatih",
    "addr:street": "18 Sekbanlar Sokağı",
    "name": "Hotel tokyo",
    "name:ar": "فندق طوكيو",
    "operator": "Private Hotel",
    "tourism": "hotel"
  }
},
{
  "type": "node",
  "id": 5106118224,
  "lat": 41.0120457,
  "lon": 28.9565706,
  "tags": {
    "addr:city": "İstanbul",
    "addr:district": "Fatih",
    "addr:street": "18 Sekbanlar Sokağı",
    "name": "Lyon hotel",
    "name:ar": "فندق ليون",
    "operator": "Private Hotel",
    "tourism": "hotel"
  }
},
{
  "type": "node",
  "id": 5106118225,
  "lat": 41.0126367,
  "lon": 28.9569622,
  "tags": {
    "addr:city": "İstanbul",
    "addr:district": "Fatih",
    "addr:street": "Mahmudiye Sokağı",
    "name": "Tilia hotel",
    "name:ar": "فندق تيليا",
    "operator": "Private Hotel",
    "tourism": "hotel",
    "wikidata": "Q111857281"
  }
},
{
  "type": "node",
  "id": 5106118227,
  "lat": 41.0125922,
  "lon": 28.9577347,
  "tags": {
    "addr:city": "İstanbul",
    "addr:district": "Fatih",
    "addr:street": "Fevziye Caddesi",
    "name": "Hamidiye hotel",
    "name:ar": "فندق حميدية",
    "operator": "Private Hotel",
    "tourism": "hotel"
  }
},
{
  "type": "node",
  "id": 5106118230,
  "lat": 41.0123939,
  "lon": 28.9571768,
  "tags": {
    "addr:city": "İstanbul",
    "addr:district": "Fatih",
    "addr:street": "Fevziye Caddesi",
    "name": "Carlton hotel",
    "name:ar": "فندق كارلتون",
    "operator": "Private Hotel",
    "tourism": "hotel"
  }
},
{
  "type": "node",
  "id": 5106118233,
  "lat": 41.0119719,
  "lon": 28.9571283,
  "tags": {
    "addr:city": "İstanbul",
    "addr:district": "Fatih",
    "addr:street": "Fethibey Caddesi",
    "name": "Beethoven hotel",
    "name:ar": "فندق بيتهوفن",
    "operator": "Private Hotel",
    "tourism": "hotel"
  }
},